[
{"zip":"34050","city":"FPO","state":"","code":"AA","county":"Erie","lat":"41.0375","long":"-111.6789"},
{"zip":"34034","city":"APO","state":"","code":"AA","county":"Dillon","lat":"33.0364","long":"-82.2493"},
{"zip":"99553","city":"Akutan","state":"Alaska","code":"AK","county":"Aleutians East","lat":"54.143","long":"-165.7854"},
{"zip":"99571","city":"Cold Bay","state":"Alaska","code":"AK","county":"Aleutians East","lat":"55.3976","long":"-162.4206"},
{"zip":"99583","city":"False Pass","state":"Alaska","code":"AK","county":"Aleutians East","lat":"54.841","long":"-163.4368"},
{"zip":"99612","city":"King Cove","state":"Alaska","code":"AK","county":"Aleutians East","lat":"55.0628","long":"-162.3056"},
{"zip":"99661","city":"Sand Point","state":"Alaska","code":"AK","county":"Aleutians East","lat":"55.3192","long":"-160.4914"},
{"zip":"99546","city":"Adak","state":"Alaska","code":"AK","county":"Aleutians West (CA)","lat":"54.2402","long":"-176.7874"},
{"zip":"99547","city":"Atka","state":"Alaska","code":"AK","county":"Aleutians West (CA)","lat":"54.2402","long":"-176.7874"},
{"zip":"99591","city":"Saint George Island","state":"Alaska","code":"AK","county":"Aleutians West (CA)","lat":"54.2402","long":"-176.7874"},
{"zip":"99638","city":"Nikolski","state":"Alaska","code":"AK","county":"Aleutians West (CA)","lat":"52.9883","long":"-168.7884"},
{"zip":"99660","city":"Saint Paul Island","state":"Alaska","code":"AK","county":"Aleutians West (CA)","lat":"54.2402","long":"-176.7874"},
{"zip":"99685","city":"Unalaska","state":"Alaska","code":"AK","county":"Aleutians West (CA)","lat":"53.8871","long":"-166.5199"},
{"zip":"99692","city":"Dutch Harbor","state":"Alaska","code":"AK","county":"Aleutians West (CA)","lat":"53.3628","long":"-167.5107"},
{"zip":"99501","city":"Anchorage","state":"Alaska","code":"AK","county":"Anchorage Municipality","lat":"61.2116","long":"-149.8761"},
{"zip":"99502","city":"Anchorage","state":"Alaska","code":"AK","county":"Anchorage Municipality","lat":"61.1661","long":"-149.96"},
{"zip":"99503","city":"Anchorage","state":"Alaska","code":"AK","county":"Anchorage Municipality","lat":"61.19","long":"-149.8938"},
{"zip":"99504","city":"Anchorage","state":"Alaska","code":"AK","county":"Anchorage Municipality","lat":"61.2037","long":"-149.7447"},
{"zip":"99505","city":"Fort Richardson","state":"Alaska","code":"AK","county":"Anchorage Municipality","lat":"61.2753","long":"-149.6755"},
{"zip":"99506","city":"Elmendorf Afb","state":"Alaska","code":"AK","county":"Anchorage Municipality","lat":"61.2515","long":"-149.8127"},
{"zip":"99507","city":"Anchorage","state":"Alaska","code":"AK","county":"Anchorage Municipality","lat":"61.1535","long":"-149.8289"},
{"zip":"99508","city":"Anchorage","state":"Alaska","code":"AK","county":"Anchorage Municipality","lat":"61.206","long":"-149.8101"},
{"zip":"99509","city":"Anchorage","state":"Alaska","code":"AK","county":"Anchorage Municipality","lat":"61.1089","long":"-149.4403"},
{"zip":"99510","city":"Anchorage","state":"Alaska","code":"AK","county":"Anchorage Municipality","lat":"61.1446","long":"-149.8784"},
{"zip":"99511","city":"Anchorage","state":"Alaska","code":"AK","county":"Anchorage Municipality","lat":"61.0683","long":"-149.8005"},
{"zip":"99512","city":"Anchorage","state":"Alaska","code":"AK","county":"Anchorage Municipality","lat":"61.204","long":"-149.8084"},
{"zip":"99513","city":"Anchorage","state":"Alaska","code":"AK","county":"Anchorage Municipality","lat":"61.2149","long":"-149.8862"},
{"zip":"99514","city":"Anchorage","state":"Alaska","code":"AK","county":"Anchorage Municipality","lat":"61.1089","long":"-149.4403"},
{"zip":"99515","city":"Anchorage","state":"Alaska","code":"AK","county":"Anchorage Municipality","lat":"61.1194","long":"-149.8974"},
{"zip":"99516","city":"Anchorage","state":"Alaska","code":"AK","county":"Anchorage Municipality","lat":"61.1054","long":"-149.78"},
{"zip":"99517","city":"Anchorage","state":"Alaska","code":"AK","county":"Anchorage Municipality","lat":"61.1901","long":"-149.9361"},
{"zip":"99518","city":"Anchorage","state":"Alaska","code":"AK","county":"Anchorage Municipality","lat":"61.1549","long":"-149.8866"},
{"zip":"99519","city":"Anchorage","state":"Alaska","code":"AK","county":"Anchorage Municipality","lat":"61.1089","long":"-149.4403"},
{"zip":"99520","city":"Anchorage","state":"Alaska","code":"AK","county":"Anchorage Municipality","lat":"61.1089","long":"-149.4403"},
{"zip":"99521","city":"Anchorage","state":"Alaska","code":"AK","county":"Anchorage Municipality","lat":"61.1089","long":"-149.4403"},
{"zip":"99522","city":"Anchorage","state":"Alaska","code":"AK","county":"Anchorage Municipality","lat":"61.1089","long":"-149.4403"},
{"zip":"99523","city":"Anchorage","state":"Alaska","code":"AK","county":"Anchorage Municipality","lat":"61.1089","long":"-149.4403"},
{"zip":"99524","city":"Anchorage","state":"Alaska","code":"AK","county":"Anchorage Municipality","lat":"61.1089","long":"-149.4403"},
{"zip":"99540","city":"Indian","state":"Alaska","code":"AK","county":"Anchorage Municipality","lat":"61.1089","long":"-149.4403"},
{"zip":"99567","city":"Chugiak","state":"Alaska","code":"AK","county":"Anchorage Municipality","lat":"61.4098","long":"-149.4537"},
{"zip":"99577","city":"Eagle River","state":"Alaska","code":"AK","county":"Anchorage Municipality","lat":"61.3114","long":"-149.5085"},
{"zip":"99587","city":"Girdwood","state":"Alaska","code":"AK","county":"Anchorage Municipality","lat":"60.9577","long":"-149.1406"},
{"zip":"99599","city":"Anchorage","state":"Alaska","code":"AK","county":"Anchorage Municipality","lat":"61.1872","long":"-149.8804"},
{"zip":"99695","city":"Anchorage","state":"Alaska","code":"AK","county":"Anchorage Municipality","lat":"61.1089","long":"-149.4403"},
{"zip":"99551","city":"Akiachak","state":"Alaska","code":"AK","county":"Bethel (CA)","lat":"60.3147","long":"-163.1189"},
{"zip":"99552","city":"Akiak","state":"Alaska","code":"AK","county":"Bethel (CA)","lat":"60.3147","long":"-163.1189"},
{"zip":"99557","city":"Aniak","state":"Alaska","code":"AK","county":"Bethel (CA)","lat":"60.3147","long":"-163.1189"},
{"zip":"99559","city":"Bethel","state":"Alaska","code":"AK","county":"Bethel (CA)","lat":"60.13","long":"-162.1739"},
{"zip":"99561","city":"Chefornak","state":"Alaska","code":"AK","county":"Bethel (CA)","lat":"60.1537","long":"-164.2103"},
{"zip":"99575","city":"Crooked Creek","state":"Alaska","code":"AK","county":"Bethel (CA)","lat":"61.8181","long":"-158.0025"},
{"zip":"99578","city":"Eek","state":"Alaska","code":"AK","county":"Bethel (CA)","lat":"60.2151","long":"-162.0323"},
{"zip":"99589","city":"Goodnews Bay","state":"Alaska","code":"AK","county":"Bethel (CA)","lat":"60.3147","long":"-163.1189"},
{"zip":"99607","city":"Kalskag","state":"Alaska","code":"AK","county":"Bethel (CA)","lat":"61.541","long":"-160.3261"},
{"zip":"99609","city":"Kasigluk","state":"Alaska","code":"AK","county":"Bethel (CA)","lat":"60.3147","long":"-163.1189"},
{"zip":"99614","city":"Kipnuk","state":"Alaska","code":"AK","county":"Bethel (CA)","lat":"59.9232","long":"-164.101"},
{"zip":"99621","city":"Kwethluk","state":"Alaska","code":"AK","county":"Bethel (CA)","lat":"60.3147","long":"-163.1189"},
{"zip":"99622","city":"Kwigillingok","state":"Alaska","code":"AK","county":"Bethel (CA)","lat":"60.3147","long":"-163.1189"},
{"zip":"99626","city":"Lower Kalskag","state":"Alaska","code":"AK","county":"Bethel (CA)","lat":"61.5138","long":"-160.36"},
{"zip":"99630","city":"Mekoryuk","state":"Alaska","code":"AK","county":"Bethel (CA)","lat":"60.3657","long":"-166.2836"},
{"zip":"99634","city":"Napakiak","state":"Alaska","code":"AK","county":"Bethel (CA)","lat":"60.3147","long":"-163.1189"},
{"zip":"99637","city":"Toksook Bay","state":"Alaska","code":"AK","county":"Bethel (CA)","lat":"60.3147","long":"-163.1189"},
{"zip":"99641","city":"Nunapitchuk","state":"Alaska","code":"AK","county":"Bethel (CA)","lat":"60.3147","long":"-163.1189"},
{"zip":"99651","city":"Platinum","state":"Alaska","code":"AK","county":"Bethel (CA)","lat":"60.3147","long":"-163.1189"},
{"zip":"99655","city":"Quinhagak","state":"Alaska","code":"AK","county":"Bethel (CA)","lat":"59.7381","long":"-161.8749"},
{"zip":"99656","city":"Red Devil","state":"Alaska","code":"AK","county":"Bethel (CA)","lat":"60.3147","long":"-163.1189"},
{"zip":"99668","city":"Sleetmute","state":"Alaska","code":"AK","county":"Bethel (CA)","lat":"61.6346","long":"-157.1183"},
{"zip":"99679","city":"Tuluksak","state":"Alaska","code":"AK","county":"Bethel (CA)","lat":"61.1088","long":"-160.9389"},
{"zip":"99680","city":"Tuntutuliak","state":"Alaska","code":"AK","county":"Bethel (CA)","lat":"60.3147","long":"-163.1189"},
{"zip":"99681","city":"Tununak","state":"Alaska","code":"AK","county":"Bethel (CA)","lat":"60.3147","long":"-163.1189"},
{"zip":"99690","city":"Nightmute","state":"Alaska","code":"AK","county":"Bethel (CA)","lat":"60.3147","long":"-163.1189"},
{"zip":"99613","city":"King Salmon","state":"Alaska","code":"AK","county":"Bristol Bay","lat":"58.7456","long":"-157.1595"},
{"zip":"99633","city":"Naknek","state":"Alaska","code":"AK","county":"Bristol Bay","lat":"58.783","long":"-156.8992"},
{"zip":"99670","city":"South Naknek","state":"Alaska","code":"AK","county":"Bristol Bay","lat":"58.6639","long":"-156.9756"},
{"zip":"99704","city":"Clear","state":"Alaska","code":"AK","county":"Denali","lat":"64.2966","long":"-149.1608"},
{"zip":"99729","city":"Cantwell","state":"Alaska","code":"AK","county":"Denali","lat":"63.3955","long":"-148.8974"},
{"zip":"99743","city":"Healy","state":"Alaska","code":"AK","county":"Denali","lat":"63.9171","long":"-149.0111"},
{"zip":"99744","city":"Anderson","state":"Alaska","code":"AK","county":"Denali","lat":"63.5436","long":"-149.9867"},
{"zip":"99755","city":"Denali National Park","state":"Alaska","code":"AK","county":"Denali","lat":"63.5436","long":"-149.9867"},
{"zip":"99555","city":"Aleknagik","state":"Alaska","code":"AK","county":"Dillingham (CA)","lat":"59.2697","long":"-158.6199"},
{"zip":"99569","city":"Clarks Point","state":"Alaska","code":"AK","county":"Dillingham (CA)","lat":"58.8173","long":"-158.5299"},
{"zip":"99576","city":"Dillingham","state":"Alaska","code":"AK","county":"Dillingham (CA)","lat":"59.0402","long":"-158.5231"},
{"zip":"99580","city":"Ekwok","state":"Alaska","code":"AK","county":"Dillingham (CA)","lat":"59.3628","long":"-157.4782"},
{"zip":"99628","city":"Manokotak","state":"Alaska","code":"AK","county":"Dillingham (CA)","lat":"59.0096","long":"-158.9897"},
{"zip":"99636","city":"New Stuyahok","state":"Alaska","code":"AK","county":"Dillingham (CA)","lat":"59.4882","long":"-157.2905"},
{"zip":"99678","city":"Togiak","state":"Alaska","code":"AK","county":"Dillingham (CA)","lat":"59.3292","long":"-160.1123"},
{"zip":"99701","city":"Fairbanks","state":"Alaska","code":"AK","county":"Fairbanks North Star","lat":"64.644","long":"-147.5221"},
{"zip":"99702","city":"Eielson Afb","state":"Alaska","code":"AK","county":"Fairbanks North Star","lat":"64.6735","long":"-147.0805"},
{"zip":"99703","city":"Fort Wainwright","state":"Alaska","code":"AK","county":"Fairbanks North Star","lat":"64.8283","long":"-147.6557"},
{"zip":"99705","city":"North Pole","state":"Alaska","code":"AK","county":"Fairbanks North Star","lat":"64.7805","long":"-147.3694"},
{"zip":"99706","city":"Fairbanks","state":"Alaska","code":"AK","county":"Fairbanks North Star","lat":"64.8521","long":"-147.9377"},
{"zip":"99707","city":"Fairbanks","state":"Alaska","code":"AK","county":"Fairbanks North Star","lat":"64.6998","long":"-147.4051"},
{"zip":"99708","city":"Fairbanks","state":"Alaska","code":"AK","county":"Fairbanks North Star","lat":"64.9475","long":"-147.8564"},
{"zip":"99709","city":"Fairbanks","state":"Alaska","code":"AK","county":"Fairbanks North Star","lat":"64.8544","long":"-147.8469"},
{"zip":"99710","city":"Fairbanks","state":"Alaska","code":"AK","county":"Fairbanks North Star","lat":"64.9486","long":"-147.5355"},
{"zip":"99711","city":"Fairbanks","state":"Alaska","code":"AK","county":"Fairbanks North Star","lat":"64.8264","long":"-147.3888"},
{"zip":"99712","city":"Fairbanks","state":"Alaska","code":"AK","county":"Fairbanks North Star","lat":"64.9109","long":"-147.5105"},
{"zip":"99714","city":"Salcha","state":"Alaska","code":"AK","county":"Fairbanks North Star","lat":"64.509","long":"-146.953"},
{"zip":"99716","city":"Two Rivers","state":"Alaska","code":"AK","county":"Fairbanks North Star","lat":"64.8746","long":"-146.8982"},
{"zip":"99725","city":"Ester","state":"Alaska","code":"AK","county":"Fairbanks North Star","lat":"64.871","long":"-148.0949"},
{"zip":"99775","city":"Fairbanks","state":"Alaska","code":"AK","county":"Fairbanks North Star","lat":"64.8591","long":"-147.8267"},
{"zip":"99790","city":"Fairbanks","state":"Alaska","code":"AK","county":"Fairbanks North Star","lat":"64.8561","long":"-146.276"},
{"zip":"99827","city":"Haines","state":"Alaska","code":"AK","county":"Haines","lat":"59.2519","long":"-135.542"},
{"zip":"99801","city":"Juneau","state":"Alaska","code":"AK","county":"Juneau City and Boroug","lat":"58.3628","long":"-134.5294"},
{"zip":"99802","city":"Juneau","state":"Alaska","code":"AK","county":"Juneau City and Boroug","lat":"58.4057","long":"-134.5897"},
{"zip":"99803","city":"Juneau","state":"Alaska","code":"AK","county":"Juneau City and Boroug","lat":"58.3771","long":"-134.6174"},
{"zip":"99811","city":"Juneau","state":"Alaska","code":"AK","county":"Juneau City and Boroug","lat":"58.3835","long":"-134.1978"},
{"zip":"99821","city":"Auke Bay","state":"Alaska","code":"AK","county":"Juneau City and Boroug","lat":"58.4494","long":"-134.7003"},
{"zip":"99824","city":"Douglas","state":"Alaska","code":"AK","county":"Juneau City and Boroug","lat":"58.2756","long":"-134.395"},
{"zip":"99850","city":"Juneau","state":"Alaska","code":"AK","county":"Juneau City and Boroug","lat":"58.3835","long":"-134.1978"},
{"zip":"99556","city":"Anchor Point","state":"Alaska","code":"AK","county":"Kenai Peninsula","lat":"59.8371","long":"-151.7078"},
{"zip":"99568","city":"Clam Gulch","state":"Alaska","code":"AK","county":"Kenai Peninsula","lat":"60.2016","long":"-151.4226"},
{"zip":"99572","city":"Cooper Landing","state":"Alaska","code":"AK","county":"Kenai Peninsula","lat":"60.4767","long":"-149.8235"},
{"zip":"99603","city":"Homer","state":"Alaska","code":"AK","county":"Kenai Peninsula","lat":"59.5374","long":"-151.2356"},
{"zip":"99605","city":"Hope","state":"Alaska","code":"AK","county":"Kenai Peninsula","lat":"60.8726","long":"-149.4683"},
{"zip":"99610","city":"Kasilof","state":"Alaska","code":"AK","county":"Kenai Peninsula","lat":"60.3164","long":"-151.2896"},
{"zip":"99611","city":"Kenai","state":"Alaska","code":"AK","county":"Kenai Peninsula","lat":"60.6145","long":"-151.2546"},
{"zip":"99631","city":"Moose Pass","state":"Alaska","code":"AK","county":"Kenai Peninsula","lat":"60.6148","long":"-149.4056"},
{"zip":"99635","city":"Nikiski","state":"Alaska","code":"AK","county":"Kenai Peninsula","lat":"60.7007","long":"-151.2766"},
{"zip":"99639","city":"Ninilchik","state":"Alaska","code":"AK","county":"Kenai Peninsula","lat":"60.0108","long":"-151.6396"},
{"zip":"99663","city":"Seldovia","state":"Alaska","code":"AK","county":"Kenai Peninsula","lat":"59.4495","long":"-151.7009"},
{"zip":"99664","city":"Seward","state":"Alaska","code":"AK","county":"Kenai Peninsula","lat":"60.1329","long":"-149.3985"},
{"zip":"99669","city":"Soldotna","state":"Alaska","code":"AK","county":"Kenai Peninsula","lat":"60.4818","long":"-151.1358"},
{"zip":"99672","city":"Sterling","state":"Alaska","code":"AK","county":"Kenai Peninsula","lat":"60.5136","long":"-150.8532"},
{"zip":"99682","city":"Tyonek","state":"Alaska","code":"AK","county":"Kenai Peninsula","lat":"60.0366","long":"-151.6556"},
{"zip":"99901","city":"Ketchikan","state":"Alaska","code":"AK","county":"Ketchikan Gateway","lat":"55.372","long":"-131.6832"},
{"zip":"99928","city":"Ward Cove","state":"Alaska","code":"AK","county":"Ketchikan Gateway","lat":"55.3954","long":"-131.6754"},
{"zip":"99950","city":"Ketchikan","state":"Alaska","code":"AK","county":"Ketchikan Gateway","lat":"55.542","long":"-131.4327"},
{"zip":"99550","city":"Port Lions","state":"Alaska","code":"AK","county":"Kodiak Island","lat":"57.7012","long":"-153.5056"},
{"zip":"99608","city":"Karluk","state":"Alaska","code":"AK","county":"Kodiak Island","lat":"58.2687","long":"-155.7971"},
{"zip":"99615","city":"Kodiak","state":"Alaska","code":"AK","county":"Kodiak Island","lat":"57.6036","long":"-153.3751"},
{"zip":"99619","city":"Kodiak","state":"Alaska","code":"AK","county":"Kodiak Island","lat":"58.2687","long":"-155.7971"},
{"zip":"99624","city":"Larsen Bay","state":"Alaska","code":"AK","county":"Kodiak Island","lat":"58.2687","long":"-155.7971"},
{"zip":"99643","city":"Old Harbor","state":"Alaska","code":"AK","county":"Kodiak Island","lat":"58.2687","long":"-155.7971"},
{"zip":"99644","city":"Ouzinkie","state":"Alaska","code":"AK","county":"Kodiak Island","lat":"58.2687","long":"-155.7971"},
{"zip":"99697","city":"Kodiak","state":"Alaska","code":"AK","county":"Kodiak Island","lat":"58.2687","long":"-155.7971"},
{"zip":"99548","city":"Chignik Lake","state":"Alaska","code":"AK","county":"Lake and Peninsula","lat":"56.2448","long":"-158.7578"},
{"zip":"99549","city":"Port Heiden","state":"Alaska","code":"AK","county":"Lake and Peninsula","lat":"56.9643","long":"-158.5664"},
{"zip":"99564","city":"Chignik","state":"Alaska","code":"AK","county":"Lake and Peninsula","lat":"56.3016","long":"-158.4157"},
{"zip":"99565","city":"Chignik Lagoon","state":"Alaska","code":"AK","county":"Lake and Peninsula","lat":"58.2687","long":"-156.6484"},
{"zip":"99579","city":"Egegik","state":"Alaska","code":"AK","county":"Lake and Peninsula","lat":"58.2062","long":"-157.3422"},
{"zip":"99606","city":"Iliamna","state":"Alaska","code":"AK","county":"Lake and Peninsula","lat":"59.7525","long":"-154.8236"},
{"zip":"99625","city":"Levelock","state":"Alaska","code":"AK","county":"Lake and Peninsula","lat":"59.2905","long":"-156.6503"},
{"zip":"99640","city":"Nondalton","state":"Alaska","code":"AK","county":"Lake and Peninsula","lat":"58.2687","long":"-156.6484"},
{"zip":"99647","city":"Pedro Bay","state":"Alaska","code":"AK","county":"Lake and Peninsula","lat":"59.8681","long":"-154.0757"},
{"zip":"99648","city":"Perryville","state":"Alaska","code":"AK","county":"Lake and Peninsula","lat":"55.9453","long":"-159.2593"},
{"zip":"99649","city":"Pilot Point","state":"Alaska","code":"AK","county":"Lake and Peninsula","lat":"57.5952","long":"-157.4493"},
{"zip":"99653","city":"Port Alsworth","state":"Alaska","code":"AK","county":"Lake and Peninsula","lat":"58.2687","long":"-156.6484"},
{"zip":"99623","city":"Wasilla","state":"Alaska","code":"AK","county":"Matanuska-Susitna Borough","lat":"61.5463","long":"-149.5901"},
{"zip":"99629","city":"Wasilla","state":"Alaska","code":"AK","county":"Matanuska-Susitna Borough","lat":"61.5841","long":"-149.4436"},
{"zip":"99645","city":"Palmer","state":"Alaska","code":"AK","county":"Matanuska-Susitna","lat":"61.6303","long":"-148.9872"},
{"zip":"99652","city":"Big Lake","state":"Alaska","code":"AK","county":"Matanuska-Susitna","lat":"61.523","long":"-149.7288"},
{"zip":"99654","city":"Wasilla","state":"Alaska","code":"AK","county":"Matanuska-Susitna","lat":"61.5923","long":"-149.3959"},
{"zip":"99667","city":"Skwentna","state":"Alaska","code":"AK","county":"Matanuska-Susitna","lat":"62.2804","long":"-149.7152"},
{"zip":"99674","city":"Sutton","state":"Alaska","code":"AK","county":"Matanuska-Susitna","lat":"61.7327","long":"-148.7837"},
{"zip":"99676","city":"Talkeetna","state":"Alaska","code":"AK","county":"Matanuska-Susitna","lat":"62.2605","long":"-150.1101"},
{"zip":"99683","city":"Trapper Creek","state":"Alaska","code":"AK","county":"Matanuska-Susitna","lat":"62.5019","long":"-151.0043"},
{"zip":"99687","city":"Wasilla","state":"Alaska","code":"AK","county":"Matanuska-Susitna","lat":"61.5313","long":"-149.4784"},
{"zip":"99688","city":"Willow","state":"Alaska","code":"AK","county":"Matanuska-Susitna","lat":"61.8966","long":"-150.0038"},
{"zip":"99694","city":"Houston","state":"Alaska","code":"AK","county":"Matanuska-Susitna","lat":"62.2804","long":"-149.7152"},
{"zip":"99659","city":"Saint Michael","state":"Alaska","code":"AK","county":"Nome (CA)","lat":"63.4776","long":"-162.1091"},
{"zip":"99671","city":"Stebbins","state":"Alaska","code":"AK","county":"Nome (CA)","lat":"64.7556","long":"-165.6723"},
{"zip":"99684","city":"Unalakleet","state":"Alaska","code":"AK","county":"Nome (CA)","lat":"63.8835","long":"-160.7884"},
{"zip":"99739","city":"Elim","state":"Alaska","code":"AK","county":"Nome (CA)","lat":"64.6217","long":"-162.2604"},
{"zip":"99742","city":"Gambell","state":"Alaska","code":"AK","county":"Nome (CA)","lat":"63.7766","long":"-171.7017"},
{"zip":"99753","city":"Koyuk","state":"Alaska","code":"AK","county":"Nome (CA)","lat":"64.7556","long":"-165.6723"},
{"zip":"99762","city":"Nome","state":"Alaska","code":"AK","county":"Nome (CA)","lat":"64.8393","long":"-164.4361"},
{"zip":"99769","city":"Savoonga","state":"Alaska","code":"AK","county":"Nome (CA)","lat":"63.6797","long":"-170.4709"},
{"zip":"99771","city":"Shaktoolik","state":"Alaska","code":"AK","county":"Nome (CA)","lat":"64.3755","long":"-161.1746"},
{"zip":"99772","city":"Shishmaref","state":"Alaska","code":"AK","county":"Nome (CA)","lat":"66.2306","long":"-166.1373"},
{"zip":"99778","city":"Teller","state":"Alaska","code":"AK","county":"Nome (CA)","lat":"65.2402","long":"-166.3833"},
{"zip":"99783","city":"Wales","state":"Alaska","code":"AK","county":"Nome (CA)","lat":"64.7556","long":"-165.6723"},
{"zip":"99784","city":"White Mountain","state":"Alaska","code":"AK","county":"Nome (CA)","lat":"64.7028","long":"-163.4218"},
{"zip":"99785","city":"Brevig Mission","state":"Alaska","code":"AK","county":"Nome (CA)","lat":"65.3342","long":"-166.4786"},
{"zip":"99721","city":"Anaktuvuk Pass","state":"Alaska","code":"AK","county":"North Slope","lat":"66.6933","long":"-153.994"},
{"zip":"99723","city":"Barrow","state":"Alaska","code":"AK","county":"North Slope","lat":"71.2346","long":"-156.8174"},
{"zip":"99734","city":"Prudhoe Bay","state":"Alaska","code":"AK","county":"North Slope","lat":"66.6933","long":"-153.994"},
{"zip":"99747","city":"Kaktovik","state":"Alaska","code":"AK","county":"North Slope","lat":"66.6933","long":"-153.994"},
{"zip":"99759","city":"Point Lay","state":"Alaska","code":"AK","county":"North Slope","lat":"68.887","long":"-164.2497"},
{"zip":"99766","city":"Point Hope","state":"Alaska","code":"AK","county":"North Slope","lat":"66.6933","long":"-153.994"},
{"zip":"99782","city":"Wainwright","state":"Alaska","code":"AK","county":"North Slope","lat":"66.6933","long":"-153.994"},
{"zip":"99789","city":"Nuiqsut","state":"Alaska","code":"AK","county":"North Slope","lat":"70.1927","long":"-150.9971"},
{"zip":"99791","city":"Atqasuk","state":"Alaska","code":"AK","county":"North Slope","lat":"70.4947","long":"-157.4411"},
{"zip":"99727","city":"Buckland","state":"Alaska","code":"AK","county":"Northwest Arctic","lat":"66.8684","long":"-159.8439"},
{"zip":"99736","city":"Deering","state":"Alaska","code":"AK","county":"Northwest Arctic","lat":"66.8684","long":"-159.8439"},
{"zip":"99749","city":"Kiana","state":"Alaska","code":"AK","county":"Northwest Arctic","lat":"66.8684","long":"-159.8439"},
{"zip":"99750","city":"Kivalina","state":"Alaska","code":"AK","county":"Northwest Arctic","lat":"66.8684","long":"-159.8439"},
{"zip":"99751","city":"Kobuk","state":"Alaska","code":"AK","county":"Northwest Arctic","lat":"66.8684","long":"-159.8439"},
{"zip":"99752","city":"Kotzebue","state":"Alaska","code":"AK","county":"Northwest Arctic","lat":"66.8653","long":"-161.7808"},
{"zip":"99761","city":"Noatak","state":"Alaska","code":"AK","county":"Northwest Arctic","lat":"66.8684","long":"-159.8439"},
{"zip":"99763","city":"Noorvik","state":"Alaska","code":"AK","county":"Northwest Arctic","lat":"66.8364","long":"-161.0441"},
{"zip":"99770","city":"Selawik","state":"Alaska","code":"AK","county":"Northwest Arctic","lat":"66.8684","long":"-159.8439"},
{"zip":"99773","city":"Shungnak","state":"Alaska","code":"AK","county":"Northwest Arctic","lat":"66.8684","long":"-159.8439"},
{"zip":"99786","city":"Ambler","state":"Alaska","code":"AK","county":"Northwest Arctic","lat":"66.8684","long":"-159.8439"},
{"zip":"99903","city":"Meyers Chuck","state":"Alaska","code":"AK","county":"Prince of Wales-Outer","lat":"55.5179","long":"-132.0032"},
{"zip":"99918","city":"Coffman Cove","state":"Alaska","code":"AK","county":"Prince of Wales-Outer","lat":"55.9524","long":"-132.7503"},
{"zip":"99919","city":"Thorne Bay","state":"Alaska","code":"AK","county":"Prince of Wales-Outer","lat":"55.6609","long":"-132.5138"},
{"zip":"99921","city":"Craig","state":"Alaska","code":"AK","county":"Prince of Wales-Outer","lat":"55.4732","long":"-133.1171"},
{"zip":"99922","city":"Hydaburg","state":"Alaska","code":"AK","county":"Prince of Wales-Outer","lat":"55.2087","long":"-132.8259"},
{"zip":"99923","city":"Hyder","state":"Alaska","code":"AK","county":"Prince of Wales-Outer","lat":"55.5179","long":"-132.0032"},
{"zip":"99925","city":"Klawock","state":"Alaska","code":"AK","county":"Prince of Wales-Outer","lat":"55.5526","long":"-133.0555"},
{"zip":"99926","city":"Metlakatla","state":"Alaska","code":"AK","county":"Prince of Wales-Outer","lat":"55.1215","long":"-131.579"},
{"zip":"99927","city":"Point Baker","state":"Alaska","code":"AK","county":"Prince of Wales-Outer","lat":"55.5179","long":"-132.0032"},
{"zip":"99835","city":"Sitka","state":"Alaska","code":"AK","county":"Sitka City and Borough","lat":"57.0514","long":"-135.3166"},
{"zip":"99689","city":"Yakutat","state":"Alaska","code":"AK","county":"Skagway-Hoonah-Angoon","lat":"59.812","long":"-139.5505"},
{"zip":"99820","city":"Angoon","state":"Alaska","code":"AK","county":"Skagway-Hoonah-Angoon","lat":"57.5005","long":"-134.586"},
{"zip":"99825","city":"Elfin Cove","state":"Alaska","code":"AK","county":"Skagway-Hoonah-Angoon","lat":"58.3318","long":"-135.1813"},
{"zip":"99826","city":"Gustavus","state":"Alaska","code":"AK","county":"Skagway-Hoonah-Angoon","lat":"58.4284","long":"-135.7615"},
{"zip":"99829","city":"Hoonah","state":"Alaska","code":"AK","county":"Skagway-Hoonah-Angoon","lat":"58.0977","long":"-135.4316"},
{"zip":"99832","city":"Pelican","state":"Alaska","code":"AK","county":"Skagway-Hoonah-Angoon","lat":"58.3318","long":"-135.1813"},
{"zip":"99840","city":"Skagway","state":"Alaska","code":"AK","county":"Skagway-Hoonah-Angoon","lat":"59.4685","long":"-135.3018"},
{"zip":"99841","city":"Tenakee Springs","state":"Alaska","code":"AK","county":"Skagway-Hoonah-Angoon","lat":"57.7943","long":"-135.1844"},
{"zip":"99732","city":"Chicken","state":"Alaska","code":"AK","county":"Southeast Fairbanks (C","lat":"63.8706","long":"-144.0026"},
{"zip":"99737","city":"Delta Junction","state":"Alaska","code":"AK","county":"Southeast Fairbanks (C","lat":"63.7964","long":"-145.0726"},
{"zip":"99738","city":"Eagle","state":"Alaska","code":"AK","county":"Southeast Fairbanks (C","lat":"63.8706","long":"-144.0026"},
{"zip":"99764","city":"Northway","state":"Alaska","code":"AK","county":"Southeast Fairbanks (C","lat":"63.8706","long":"-144.0026"},
{"zip":"99776","city":"Tanacross","state":"Alaska","code":"AK","county":"Southeast Fairbanks (C","lat":"63.8706","long":"-144.0026"},
{"zip":"99779","city":"Tetlin","state":"Alaska","code":"AK","county":"Southeast Fairbanks (C","lat":"63.8706","long":"-144.0026"},
{"zip":"99780","city":"Tok","state":"Alaska","code":"AK","county":"Southeast Fairbanks (C","lat":"63.8706","long":"-144.0026"},
{"zip":"99566","city":"Chitina","state":"Alaska","code":"AK","county":"Valdez-Cordova (CA)","lat":"61.471","long":"-144.991"},
{"zip":"99573","city":"Copper Center","state":"Alaska","code":"AK","county":"Valdez-Cordova (CA)","lat":"61.471","long":"-144.991"},
{"zip":"99574","city":"Cordova","state":"Alaska","code":"AK","county":"Valdez-Cordova (CA)","lat":"60.5362","long":"-145.7534"},
{"zip":"99586","city":"Gakona","state":"Alaska","code":"AK","county":"Valdez-Cordova (CA)","lat":"62.6682","long":"-144.1105"},
{"zip":"99588","city":"Glennallen","state":"Alaska","code":"AK","county":"Valdez-Cordova (CA)","lat":"62.1039","long":"-145.6617"},
{"zip":"99677","city":"Tatitlek","state":"Alaska","code":"AK","county":"Valdez-Cordova (CA)","lat":"60.8906","long":"-146.6703"},
{"zip":"99686","city":"Valdez","state":"Alaska","code":"AK","county":"Valdez-Cordova (CA)","lat":"61.101","long":"-146.9"},
{"zip":"99693","city":"Whittier","state":"Alaska","code":"AK","county":"Valdez-Cordova (CA)","lat":"60.7734","long":"-148.6839"},
{"zip":"99554","city":"Alakanuk","state":"Alaska","code":"AK","county":"Wade Hampton (CA)","lat":"62.6944","long":"-164.6475"},
{"zip":"99563","city":"Chevak","state":"Alaska","code":"AK","county":"Wade Hampton (CA)","lat":"61.529","long":"-165.5905"},
{"zip":"99581","city":"Emmonak","state":"Alaska","code":"AK","county":"Wade Hampton (CA)","lat":"62.7818","long":"-164.5335"},
{"zip":"99585","city":"Marshall","state":"Alaska","code":"AK","county":"Wade Hampton (CA)","lat":"61.9287","long":"-162.268"},
{"zip":"99604","city":"Hooper Bay","state":"Alaska","code":"AK","county":"Wade Hampton (CA)","lat":"61.527","long":"-166.1151"},
{"zip":"99620","city":"Kotlik","state":"Alaska","code":"AK","county":"Wade Hampton (CA)","lat":"63.0295","long":"-163.5542"},
{"zip":"99632","city":"Mountain Village","state":"Alaska","code":"AK","county":"Wade Hampton (CA)","lat":"62.1123","long":"-163.6644"},
{"zip":"99650","city":"Pilot Station","state":"Alaska","code":"AK","county":"Wade Hampton (CA)","lat":"61.9462","long":"-162.8747"},
{"zip":"99657","city":"Russian Mission","state":"Alaska","code":"AK","county":"Wade Hampton (CA)","lat":"61.7744","long":"-161.3939"},
{"zip":"99658","city":"Saint Marys","state":"Alaska","code":"AK","county":"Wade Hampton (CA)","lat":"62.1172","long":"-163.2376"},
{"zip":"99662","city":"Scammon Bay","state":"Alaska","code":"AK","county":"Wade Hampton (CA)","lat":"61.845","long":"-165.5819"},
{"zip":"99666","city":"Sheldon Point","state":"Alaska","code":"AK","county":"Wade Hampton (CA)","lat":"62.1172","long":"-163.2376"},
{"zip":"99830","city":"Kake","state":"Alaska","code":"AK","county":"Wrangell-Petersburg (C","lat":"56.9736","long":"-133.936"},
{"zip":"99833","city":"Petersburg","state":"Alaska","code":"AK","county":"Wrangell-Petersburg (C","lat":"56.8271","long":"-133.1607"},
{"zip":"99836","city":"Port Alexander","state":"Alaska","code":"AK","county":"Wrangell-Petersburg (C","lat":"56.536","long":"-132.8279"},
{"zip":"99929","city":"Wrangell","state":"Alaska","code":"AK","county":"Wrangell-Petersburg (C","lat":"56.4335","long":"-132.3529"},
{"zip":"99558","city":"Anvik","state":"Alaska","code":"AK","county":"Yukon-Koyukuk (CA)","lat":"65.2264","long":"-151.0251"},
{"zip":"99584","city":"Flat","state":"Alaska","code":"AK","county":"Yukon-Koyukuk (CA)","lat":"65.2264","long":"-151.0251"},
{"zip":"99590","city":"Grayling","state":"Alaska","code":"AK","county":"Yukon-Koyukuk (CA)","lat":"65.2264","long":"-151.0251"},
{"zip":"99602","city":"Holy Cross","state":"Alaska","code":"AK","county":"Yukon-Koyukuk (CA)","lat":"62.1926","long":"-159.8251"},
{"zip":"99627","city":"Mc Grath","state":"Alaska","code":"AK","county":"Yukon-Koyukuk (CA)","lat":"62.9457","long":"-155.5712"},
{"zip":"99665","city":"Shageluk","state":"Alaska","code":"AK","county":"Yukon-Koyukuk (CA)","lat":"65.2264","long":"-151.0251"},
{"zip":"99675","city":"Takotna","state":"Alaska","code":"AK","county":"Yukon-Koyukuk (CA)","lat":"65.2264","long":"-151.0251"},
{"zip":"99691","city":"Nikolai","state":"Alaska","code":"AK","county":"Yukon-Koyukuk (CA)","lat":"65.2264","long":"-151.0251"},
{"zip":"99720","city":"Allakaket","state":"Alaska","code":"AK","county":"Yukon-Koyukuk (CA)","lat":"66.5432","long":"-152.7122"},
{"zip":"99722","city":"Arctic Village","state":"Alaska","code":"AK","county":"Yukon-Koyukuk (CA)","lat":"65.2264","long":"-151.0251"},
{"zip":"99724","city":"Beaver","state":"Alaska","code":"AK","county":"Yukon-Koyukuk (CA)","lat":"66.9297","long":"-149.193"},
{"zip":"99726","city":"Bettles Field","state":"Alaska","code":"AK","county":"Yukon-Koyukuk (CA)","lat":"65.2264","long":"-151.0251"},
{"zip":"99730","city":"Central","state":"Alaska","code":"AK","county":"Yukon-Koyukuk (CA)","lat":"65.4681","long":"-144.7489"},
{"zip":"99733","city":"Circle","state":"Alaska","code":"AK","county":"Yukon-Koyukuk (CA)","lat":"65.8245","long":"-144.0826"},
{"zip":"99740","city":"Fort Yukon","state":"Alaska","code":"AK","county":"Yukon-Koyukuk (CA)","lat":"65.2264","long":"-151.0251"},
{"zip":"99741","city":"Galena","state":"Alaska","code":"AK","county":"Yukon-Koyukuk (CA)","lat":"65.8263","long":"-154.4373"},
{"zip":"99745","city":"Hughes","state":"Alaska","code":"AK","county":"Yukon-Koyukuk (CA)","lat":"66.0382","long":"-154.2644"},
{"zip":"99746","city":"Huslia","state":"Alaska","code":"AK","county":"Yukon-Koyukuk (CA)","lat":"65.6899","long":"-156.292"},
{"zip":"99748","city":"Kaltag","state":"Alaska","code":"AK","county":"Yukon-Koyukuk (CA)","lat":"64.3305","long":"-158.7243"},
{"zip":"99754","city":"Koyukuk","state":"Alaska","code":"AK","county":"Yukon-Koyukuk (CA)","lat":"65.2264","long":"-151.0251"},
{"zip":"99756","city":"Manley Hot Springs","state":"Alaska","code":"AK","county":"Yukon-Koyukuk (CA)","lat":"65.2264","long":"-151.0251"},
{"zip":"99757","city":"Lake Minchumina","state":"Alaska","code":"AK","county":"Yukon-Koyukuk (CA)","lat":"65.2264","long":"-151.0251"},
{"zip":"99758","city":"Minto","state":"Alaska","code":"AK","county":"Yukon-Koyukuk (CA)","lat":"65.0584","long":"-149.6912"},
{"zip":"99760","city":"Nenana","state":"Alaska","code":"AK","county":"Yukon-Koyukuk (CA)","lat":"64.5577","long":"-149.0867"},
{"zip":"99765","city":"Nulato","state":"Alaska","code":"AK","county":"Yukon-Koyukuk (CA)","lat":"65.2264","long":"-151.0251"},
{"zip":"99767","city":"Rampart","state":"Alaska","code":"AK","county":"Yukon-Koyukuk (CA)","lat":"65.509","long":"-150.1619"},
{"zip":"99768","city":"Ruby","state":"Alaska","code":"AK","county":"Yukon-Koyukuk (CA)","lat":"64.7201","long":"-155.5039"},
{"zip":"99774","city":"Stevens Village","state":"Alaska","code":"AK","county":"Yukon-Koyukuk (CA)","lat":"65.2264","long":"-151.0251"},
{"zip":"99777","city":"Tanana","state":"Alaska","code":"AK","county":"Yukon-Koyukuk (CA)","lat":"65.2264","long":"-151.0251"},
{"zip":"99781","city":"Venetie","state":"Alaska","code":"AK","county":"Yukon-Koyukuk (CA)","lat":"67.0104","long":"-146.4137"},
{"zip":"99788","city":"Chalkyitsik","state":"Alaska","code":"AK","county":"Yukon-Koyukuk (CA)","lat":"65.2264","long":"-151.0251"},
{"zip":"99529","city":"Anchorage","state":"Alaska","code":"AK","county":"","lat":"61.1515","long":"-149.9443"},
{"zip":"99530","city":"Anchorage","state":"Alaska","code":"AK","county":"","lat":"61.1515","long":"-149.9443"},
{"zip":"99545","city":"Kongiganak","state":"Alaska","code":"AK","county":"","lat":"59.9599","long":"-162.8919"},
{"zip":"99731","city":"Fort Greely","state":"Alaska","code":"AK","county":"","lat":"63.952","long":"-146.451"},
{"zip":"99812","city":"Juneau","state":"Alaska","code":"AK","county":"","lat":"58.3271","long":"-134.4742"},
{"zip":"36003","city":"Autaugaville","state":"Alabama","code":"AL","county":"Autauga","lat":"32.4625","long":"-86.7149"},
{"zip":"36006","city":"Billingsley","state":"Alabama","code":"AL","county":"Autauga","lat":"32.6106","long":"-86.7163"},
{"zip":"36008","city":"Booth","state":"Alabama","code":"AL","county":"Autauga","lat":"32.5016","long":"-86.5727"},
{"zip":"36051","city":"Marbury","state":"Alabama","code":"AL","county":"Autauga","lat":"32.6841","long":"-86.4946"},
{"zip":"36066","city":"Prattville","state":"Alabama","code":"AL","county":"Autauga","lat":"32.4787","long":"-86.43"},
{"zip":"36067","city":"Prattville","state":"Alabama","code":"AL","county":"Autauga","lat":"32.4715","long":"-86.4831"},
{"zip":"36068","city":"Prattville","state":"Alabama","code":"AL","county":"Autauga","lat":"32.5079","long":"-86.6663"},
{"zip":"36749","city":"Jones","state":"Alabama","code":"AL","county":"Autauga","lat":"32.5104","long":"-86.8138"},
{"zip":"36507","city":"Bay Minette","state":"Alabama","code":"AL","county":"Baldwin","lat":"30.8635","long":"-87.7644"},
{"zip":"36511","city":"Bon Secour","state":"Alabama","code":"AL","county":"Baldwin","lat":"30.3128","long":"-87.7431"},
{"zip":"36526","city":"Daphne","state":"Alabama","code":"AL","county":"Baldwin","lat":"30.6197","long":"-87.8895"},
{"zip":"36527","city":"Spanish Fort","state":"Alabama","code":"AL","county":"Baldwin","lat":"30.6959","long":"-87.8867"},
{"zip":"36530","city":"Elberta","state":"Alabama","code":"AL","county":"Baldwin","lat":"30.3942","long":"-87.589"},
{"zip":"36532","city":"Fairhope","state":"Alabama","code":"AL","county":"Baldwin","lat":"30.5012","long":"-87.8835"},
{"zip":"36533","city":"Fairhope","state":"Alabama","code":"AL","county":"Baldwin","lat":"30.4841","long":"-87.8606"},
{"zip":"36535","city":"Foley","state":"Alabama","code":"AL","county":"Baldwin","lat":"30.4007","long":"-87.6857"},
{"zip":"36536","city":"Foley","state":"Alabama","code":"AL","county":"Baldwin","lat":"30.4222","long":"-87.7064"},
{"zip":"36542","city":"Gulf Shores","state":"Alabama","code":"AL","county":"Baldwin","lat":"30.2717","long":"-87.7589"},
{"zip":"36547","city":"Gulf Shores","state":"Alabama","code":"AL","county":"Baldwin","lat":"30.2653","long":"-87.6299"},
{"zip":"36549","city":"Lillian","state":"Alabama","code":"AL","county":"Baldwin","lat":"30.3972","long":"-87.4745"},
{"zip":"36550","city":"Little River","state":"Alabama","code":"AL","county":"Baldwin","lat":"31.2246","long":"-87.7548"},
{"zip":"36551","city":"Loxley","state":"Alabama","code":"AL","county":"Baldwin","lat":"30.618","long":"-87.7562"},
{"zip":"36555","city":"Magnolia Springs","state":"Alabama","code":"AL","county":"Baldwin","lat":"30.3998","long":"-87.7726"},
{"zip":"36559","city":"Montrose","state":"Alabama","code":"AL","county":"Baldwin","lat":"30.5623","long":"-87.9005"},
{"zip":"36561","city":"Orange Beach","state":"Alabama","code":"AL","county":"Baldwin","lat":"30.281","long":"-87.5815"},
{"zip":"36562","city":"Perdido","state":"Alabama","code":"AL","county":"Baldwin","lat":"31.0403","long":"-87.6667"},
{"zip":"36564","city":"Point Clear","state":"Alabama","code":"AL","county":"Baldwin","lat":"30.476","long":"-87.9179"},
{"zip":"36567","city":"Robertsdale","state":"Alabama","code":"AL","county":"Baldwin","lat":"30.5616","long":"-87.6373"},
{"zip":"36574","city":"Seminole","state":"Alabama","code":"AL","county":"Baldwin","lat":"30.5048","long":"-87.4659"},
{"zip":"36576","city":"Silverhill","state":"Alabama","code":"AL","county":"Baldwin","lat":"30.5222","long":"-87.7457"},
{"zip":"36577","city":"Spanish Fort","state":"Alabama","code":"AL","county":"Baldwin","lat":"30.7328","long":"-87.702"},
{"zip":"36578","city":"Stapleton","state":"Alabama","code":"AL","county":"Baldwin","lat":"30.7476","long":"-87.7787"},
{"zip":"36579","city":"Stockton","state":"Alabama","code":"AL","county":"Baldwin","lat":"31.0129","long":"-87.8633"},
{"zip":"36580","city":"Summerdale","state":"Alabama","code":"AL","county":"Baldwin","lat":"30.4752","long":"-87.6992"},
{"zip":"36016","city":"Clayton","state":"Alabama","code":"AL","county":"Barbour","lat":"31.8874","long":"-85.4509"},
{"zip":"36017","city":"Clio","state":"Alabama","code":"AL","county":"Barbour","lat":"31.6852","long":"-85.5904"},
{"zip":"36027","city":"Eufaula","state":"Alabama","code":"AL","county":"Barbour","lat":"31.9051","long":"-85.1656"},
{"zip":"36048","city":"Louisville","state":"Alabama","code":"AL","county":"Barbour","lat":"31.7943","long":"-85.5581"},
{"zip":"36072","city":"Eufaula","state":"Alabama","code":"AL","county":"Barbour","lat":"31.8261","long":"-85.166"},
{"zip":"35034","city":"Brent","state":"Alabama","code":"AL","county":"Bibb","lat":"32.9357","long":"-87.2114"},
{"zip":"35035","city":"Brierfield","state":"Alabama","code":"AL","county":"Bibb","lat":"33.0427","long":"-86.9517"},
{"zip":"35042","city":"Centreville","state":"Alabama","code":"AL","county":"Bibb","lat":"32.9503","long":"-87.1192"},
{"zip":"35074","city":"Green Pond","state":"Alabama","code":"AL","county":"Bibb","lat":"33.2027","long":"-87.118"},
{"zip":"35184","city":"West Blocton","state":"Alabama","code":"AL","county":"Bibb","lat":"33.1424","long":"-87.1369"},
{"zip":"35188","city":"Woodstock","state":"Alabama","code":"AL","county":"Bibb","lat":"33.1698","long":"-87.1635"},
{"zip":"36792","city":"Randolph","state":"Alabama","code":"AL","county":"Bibb","lat":"32.8888","long":"-86.907"},
{"zip":"36793","city":"Lawley","state":"Alabama","code":"AL","county":"Bibb","lat":"32.8646","long":"-86.9567"},
{"zip":"35013","city":"Allgood","state":"Alabama","code":"AL","county":"Blount","lat":"33.9222","long":"-86.4493"},
{"zip":"35031","city":"Blountsville","state":"Alabama","code":"AL","county":"Blount","lat":"34.0929","long":"-86.5686"},
{"zip":"35049","city":"Cleveland","state":"Alabama","code":"AL","county":"Blount","lat":"33.9778","long":"-86.5598"},
{"zip":"35079","city":"Hayden","state":"Alabama","code":"AL","county":"Blount","lat":"33.9534","long":"-86.7455"},
{"zip":"35097","city":"Locust Fork","state":"Alabama","code":"AL","county":"Blount","lat":"33.905","long":"-86.6261"},
{"zip":"35121","city":"Oneonta","state":"Alabama","code":"AL","county":"Blount","lat":"33.9259","long":"-86.4741"},
{"zip":"35133","city":"Remlap","state":"Alabama","code":"AL","county":"Blount","lat":"33.8462","long":"-86.6417"},
{"zip":"36029","city":"Fitzpatrick","state":"Alabama","code":"AL","county":"Bullock","lat":"32.1516","long":"-85.8883"},
{"zip":"36053","city":"Midway","state":"Alabama","code":"AL","county":"Bullock","lat":"32.0955","long":"-85.5315"},
{"zip":"36061","city":"Perote","state":"Alabama","code":"AL","county":"Bullock","lat":"32.0928","long":"-85.7046"},
{"zip":"36089","city":"Union Springs","state":"Alabama","code":"AL","county":"Bullock","lat":"32.1663","long":"-85.6787"},
{"zip":"36015","city":"Chapman","state":"Alabama","code":"AL","county":"Butler","lat":"31.6427","long":"-86.7343"},
{"zip":"36030","city":"Forest Home","state":"Alabama","code":"AL","county":"Butler","lat":"31.8501","long":"-86.8372"},
{"zip":"36033","city":"Georgiana","state":"Alabama","code":"AL","county":"Butler","lat":"31.6287","long":"-86.734"},
{"zip":"36037","city":"Greenville","state":"Alabama","code":"AL","county":"Butler","lat":"31.81","long":"-86.6229"},
{"zip":"36456","city":"Mc Kenzie","state":"Alabama","code":"AL","county":"Butler","lat":"31.545","long":"-86.7356"},
{"zip":"36201","city":"Anniston","state":"Alabama","code":"AL","county":"Calhoun","lat":"33.6539","long":"-85.8382"},
{"zip":"36202","city":"Anniston","state":"Alabama","code":"AL","county":"Calhoun","lat":"33.7622","long":"-85.8378"},
{"zip":"36203","city":"Oxford","state":"Alabama","code":"AL","county":"Calhoun","lat":"33.5815","long":"-85.8328"},
{"zip":"36203","city":"Anniston","state":"Alabama","code":"AL","county":"Calhoun","lat":"33.5815","long":"-85.8328"},
{"zip":"36204","city":"Anniston","state":"Alabama","code":"AL","county":"Calhoun","lat":"33.7622","long":"-85.8378"},
{"zip":"36205","city":"Anniston","state":"Alabama","code":"AL","county":"Calhoun","lat":"33.7358","long":"-85.7933"},
{"zip":"36206","city":"Anniston","state":"Alabama","code":"AL","county":"Calhoun","lat":"33.7191","long":"-85.8389"},
{"zip":"36207","city":"Anniston","state":"Alabama","code":"AL","county":"Calhoun","lat":"33.6803","long":"-85.7137"},
{"zip":"36250","city":"Alexandria","state":"Alabama","code":"AL","county":"Calhoun","lat":"33.7808","long":"-85.8924"},
{"zip":"36253","city":"Bynum","state":"Alabama","code":"AL","county":"Calhoun","lat":"33.7622","long":"-85.8378"},
{"zip":"36254","city":"Choccolocco","state":"Alabama","code":"AL","county":"Calhoun","lat":"33.6573","long":"-85.6991"},
{"zip":"36257","city":"De Armanville","state":"Alabama","code":"AL","county":"Calhoun","lat":"33.7622","long":"-85.8378"},
{"zip":"36260","city":"Eastaboga","state":"Alabama","code":"AL","county":"Calhoun","lat":"33.6031","long":"-85.9608"},
{"zip":"36265","city":"Jacksonville","state":"Alabama","code":"AL","county":"Calhoun","lat":"33.831","long":"-85.7752"},
{"zip":"36271","city":"Ohatchee","state":"Alabama","code":"AL","county":"Calhoun","lat":"33.7788","long":"-86.0254"},
{"zip":"36272","city":"Piedmont","state":"Alabama","code":"AL","county":"Calhoun","lat":"33.8389","long":"-85.646"},
{"zip":"36277","city":"Weaver","state":"Alabama","code":"AL","county":"Calhoun","lat":"33.7563","long":"-85.8107"},
{"zip":"36279","city":"Wellington","state":"Alabama","code":"AL","county":"Calhoun","lat":"33.8638","long":"-85.9153"},
{"zip":"36852","city":"Cusseta","state":"Alabama","code":"AL","county":"Chambers","lat":"32.7831","long":"-85.2756"},
{"zip":"36854","city":"Valley","state":"Alabama","code":"AL","county":"Chambers","lat":"32.8113","long":"-85.1749"},
{"zip":"36855","city":"Five Points","state":"Alabama","code":"AL","county":"Chambers","lat":"33.0424","long":"-85.3243"},
{"zip":"36862","city":"Lafayette","state":"Alabama","code":"AL","county":"Chambers","lat":"32.9252","long":"-85.4426"},
{"zip":"36863","city":"Lanett","state":"Alabama","code":"AL","county":"Chambers","lat":"32.8616","long":"-85.2161"},
{"zip":"35959","city":"Cedar Bluff","state":"Alabama","code":"AL","county":"Cherokee","lat":"34.2417","long":"-85.6026"},
{"zip":"35960","city":"Centre","state":"Alabama","code":"AL","county":"Cherokee","lat":"34.1116","long":"-85.6092"},
{"zip":"35973","city":"Gaylesville","state":"Alabama","code":"AL","county":"Cherokee","lat":"34.3573","long":"-85.5589"},
{"zip":"35983","city":"Leesburg","state":"Alabama","code":"AL","county":"Cherokee","lat":"34.1911","long":"-85.7705"},
{"zip":"36275","city":"Spring Garden","state":"Alabama","code":"AL","county":"Cherokee","lat":"33.9778","long":"-85.5521"},
{"zip":"35045","city":"Clanton","state":"Alabama","code":"AL","county":"Chilton","lat":"32.8355","long":"-86.6425"},
{"zip":"35046","city":"Clanton","state":"Alabama","code":"AL","county":"Chilton","lat":"32.9229","long":"-86.545"},
{"zip":"35085","city":"Jemison","state":"Alabama","code":"AL","county":"Chilton","lat":"32.9805","long":"-86.7181"},
{"zip":"35171","city":"Thorsby","state":"Alabama","code":"AL","county":"Chilton","lat":"32.8932","long":"-86.7564"},
{"zip":"36091","city":"Verbena","state":"Alabama","code":"AL","county":"Chilton","lat":"32.7596","long":"-86.5438"},
{"zip":"36750","city":"Maplesville","state":"Alabama","code":"AL","county":"Chilton","lat":"32.8045","long":"-86.8717"},
{"zip":"36790","city":"Stanton","state":"Alabama","code":"AL","county":"Chilton","lat":"32.7332","long":"-86.8963"},
{"zip":"36904","city":"Butler","state":"Alabama","code":"AL","county":"Choctaw","lat":"32.0829","long":"-88.2064"},
{"zip":"36906","city":"Cromwell","state":"Alabama","code":"AL","county":"Choctaw","lat":"32.0042","long":"-88.2007"},
{"zip":"36908","city":"Gilbertown","state":"Alabama","code":"AL","county":"Choctaw","lat":"31.8666","long":"-88.3265"},
{"zip":"36910","city":"Jachin","state":"Alabama","code":"AL","county":"Choctaw","lat":"32.0042","long":"-88.2007"},
{"zip":"36912","city":"Lisman","state":"Alabama","code":"AL","county":"Choctaw","lat":"32.2177","long":"-88.3234"},
{"zip":"36913","city":"Melvin","state":"Alabama","code":"AL","county":"Choctaw","lat":"32.0042","long":"-88.2007"},
{"zip":"36915","city":"Needham","state":"Alabama","code":"AL","county":"Choctaw","lat":"32.0042","long":"-88.2007"},
{"zip":"36916","city":"Pennington","state":"Alabama","code":"AL","county":"Choctaw","lat":"32.2094","long":"-88.049"},
{"zip":"36919","city":"Silas","state":"Alabama","code":"AL","county":"Choctaw","lat":"31.7668","long":"-88.3091"},
{"zip":"36921","city":"Toxey","state":"Alabama","code":"AL","county":"Choctaw","lat":"31.9155","long":"-88.151"},
{"zip":"36922","city":"Ward","state":"Alabama","code":"AL","county":"Choctaw","lat":"32.3038","long":"-88.1476"},
{"zip":"36436","city":"Dickinson","state":"Alabama","code":"AL","county":"Clarke","lat":"31.7172","long":"-87.6569"},
{"zip":"36446","city":"Fulton","state":"Alabama","code":"AL","county":"Clarke","lat":"31.7925","long":"-87.72"},
{"zip":"36451","city":"Grove Hill","state":"Alabama","code":"AL","county":"Clarke","lat":"31.6755","long":"-87.7636"},
{"zip":"36482","city":"Whatley","state":"Alabama","code":"AL","county":"Clarke","lat":"31.6395","long":"-87.6565"},
{"zip":"36501","city":"Alma","state":"Alabama","code":"AL","county":"Clarke","lat":"31.4825","long":"-87.8801"},
{"zip":"36515","city":"Carlton","state":"Alabama","code":"AL","county":"Clarke","lat":"31.3224","long":"-87.8378"},
{"zip":"36524","city":"Coffeeville","state":"Alabama","code":"AL","county":"Clarke","lat":"31.7843","long":"-88.0715"},
{"zip":"36540","city":"Gainestown","state":"Alabama","code":"AL","county":"Clarke","lat":"31.4258","long":"-87.6822"},
{"zip":"36545","city":"Jackson","state":"Alabama","code":"AL","county":"Clarke","lat":"31.5131","long":"-87.8672"},
{"zip":"36570","city":"Salitpa","state":"Alabama","code":"AL","county":"Clarke","lat":"31.5884","long":"-87.8409"},
{"zip":"36586","city":"Walker Springs","state":"Alabama","code":"AL","county":"Clarke","lat":"31.5884","long":"-87.8409"},
{"zip":"36727","city":"Campbell","state":"Alabama","code":"AL","county":"Clarke","lat":"31.9213","long":"-88.008"},
{"zip":"36762","city":"Morvin","state":"Alabama","code":"AL","county":"Clarke","lat":"31.9402","long":"-88.0034"},
{"zip":"36784","city":"Thomasville","state":"Alabama","code":"AL","county":"Clarke","lat":"31.9067","long":"-87.7598"},
{"zip":"35082","city":"Hollins","state":"Alabama","code":"AL","county":"Clay","lat":"33.1162","long":"-86.1386"},
{"zip":"36251","city":"Ashland","state":"Alabama","code":"AL","county":"Clay","lat":"33.2474","long":"-85.829"},
{"zip":"36255","city":"Cragford","state":"Alabama","code":"AL","county":"Clay","lat":"33.2171","long":"-85.7108"},
{"zip":"36258","city":"Delta","state":"Alabama","code":"AL","county":"Clay","lat":"33.4573","long":"-85.6793"},
{"zip":"36266","city":"Lineville","state":"Alabama","code":"AL","county":"Clay","lat":"33.3286","long":"-85.7346"},
{"zip":"36267","city":"Millerville","state":"Alabama","code":"AL","county":"Clay","lat":"33.1808","long":"-85.9418"},
{"zip":"36261","city":"Edwardsville","state":"Alabama","code":"AL","county":"Cleburne","lat":"33.7066","long":"-85.5099"},
{"zip":"36262","city":"Fruithurst","state":"Alabama","code":"AL","county":"Cleburne","lat":"33.7717","long":"-85.4381"},
{"zip":"36264","city":"Heflin","state":"Alabama","code":"AL","county":"Cleburne","lat":"33.6115","long":"-85.5885"},
{"zip":"36269","city":"Muscadine","state":"Alabama","code":"AL","county":"Cleburne","lat":"33.7529","long":"-85.3789"},
{"zip":"36273","city":"Ranburne","state":"Alabama","code":"AL","county":"Cleburne","lat":"33.5616","long":"-85.3786"},
{"zip":"36323","city":"Elba","state":"Alabama","code":"AL","county":"Coffee","lat":"31.4137","long":"-86.0777"},
{"zip":"36330","city":"Enterprise","state":"Alabama","code":"AL","county":"Coffee","lat":"31.3408","long":"-85.8421"},
{"zip":"36331","city":"Enterprise","state":"Alabama","code":"AL","county":"Coffee","lat":"31.2978","long":"-85.9036"},
{"zip":"36346","city":"Jack","state":"Alabama","code":"AL","county":"Coffee","lat":"31.5652","long":"-85.971"},
{"zip":"36351","city":"New Brockton","state":"Alabama","code":"AL","county":"Coffee","lat":"31.369","long":"-85.9404"},
{"zip":"36453","city":"Kinston","state":"Alabama","code":"AL","county":"Coffee","lat":"31.1926","long":"-86.1514"},
{"zip":"35616","city":"Cherokee","state":"Alabama","code":"AL","county":"Colbert","lat":"34.7442","long":"-87.9724"},
{"zip":"35646","city":"Leighton","state":"Alabama","code":"AL","county":"Colbert","lat":"34.711","long":"-87.5221"},
{"zip":"35660","city":"Sheffield","state":"Alabama","code":"AL","county":"Colbert","lat":"34.7578","long":"-87.6971"},
{"zip":"35661","city":"Muscle Shoals","state":"Alabama","code":"AL","county":"Colbert","lat":"34.7561","long":"-87.6304"},
{"zip":"35662","city":"Muscle Shoals","state":"Alabama","code":"AL","county":"Colbert","lat":"34.7572","long":"-87.9666"},
{"zip":"35674","city":"Tuscumbia","state":"Alabama","code":"AL","county":"Colbert","lat":"34.6874","long":"-87.6833"},
{"zip":"36401","city":"Evergreen","state":"Alabama","code":"AL","county":"Conecuh","lat":"31.458","long":"-86.9258"},
{"zip":"36429","city":"Brooklyn","state":"Alabama","code":"AL","county":"Conecuh","lat":"31.4669","long":"-87.0447"},
{"zip":"36432","city":"Castleberry","state":"Alabama","code":"AL","county":"Conecuh","lat":"31.3709","long":"-86.9981"},
{"zip":"36454","city":"Lenox","state":"Alabama","code":"AL","county":"Conecuh","lat":"31.4669","long":"-87.0447"},
{"zip":"36473","city":"Range","state":"Alabama","code":"AL","county":"Conecuh","lat":"31.3058","long":"-87.2137"},
{"zip":"36475","city":"Repton","state":"Alabama","code":"AL","county":"Conecuh","lat":"31.4256","long":"-87.172"},
{"zip":"35072","city":"Goodwater","state":"Alabama","code":"AL","county":"Coosa","lat":"33.0746","long":"-86.0781"},
{"zip":"35089","city":"Kellyton","state":"Alabama","code":"AL","county":"Coosa","lat":"32.9791","long":"-86.0484"},
{"zip":"35136","city":"Rockford","state":"Alabama","code":"AL","county":"Coosa","lat":"32.878","long":"-86.24"},
{"zip":"35183","city":"Weogufka","state":"Alabama","code":"AL","county":"Coosa","lat":"33.0238","long":"-86.3042"},
{"zip":"36026","city":"Equality","state":"Alabama","code":"AL","county":"Coosa","lat":"32.8139","long":"-86.1051"},
{"zip":"36038","city":"Gantt","state":"Alabama","code":"AL","county":"Covington","lat":"31.2609","long":"-86.4448"},
{"zip":"36420","city":"Andalusia","state":"Alabama","code":"AL","county":"Covington","lat":"31.2971","long":"-86.4905"},
{"zip":"36442","city":"Florala","state":"Alabama","code":"AL","county":"Covington","lat":"31.0172","long":"-86.3385"},
{"zip":"36455","city":"Lockhart","state":"Alabama","code":"AL","county":"Covington","lat":"31.2609","long":"-86.4448"},
{"zip":"36467","city":"Opp","state":"Alabama","code":"AL","county":"Covington","lat":"31.2799","long":"-86.2571"},
{"zip":"36474","city":"Red Level","state":"Alabama","code":"AL","county":"Covington","lat":"31.4399","long":"-86.6121"},
{"zip":"36476","city":"River Falls","state":"Alabama","code":"AL","county":"Covington","lat":"31.2609","long":"-86.4448"},
{"zip":"36483","city":"Wing","state":"Alabama","code":"AL","county":"Covington","lat":"31.0223","long":"-86.6293"},
{"zip":"36009","city":"Brantley","state":"Alabama","code":"AL","county":"Crenshaw","lat":"31.571","long":"-86.2743"},
{"zip":"36028","city":"Dozier","state":"Alabama","code":"AL","county":"Crenshaw","lat":"31.5066","long":"-86.3663"},
{"zip":"36034","city":"Glenwood","state":"Alabama","code":"AL","county":"Crenshaw","lat":"31.6641","long":"-86.171"},
{"zip":"36041","city":"Highland Home","state":"Alabama","code":"AL","county":"Crenshaw","lat":"31.9283","long":"-86.2971"},
{"zip":"36042","city":"Honoraville","state":"Alabama","code":"AL","county":"Crenshaw","lat":"31.8784","long":"-86.3981"},
{"zip":"36049","city":"Luverne","state":"Alabama","code":"AL","county":"Crenshaw","lat":"31.7074","long":"-86.2566"},
{"zip":"36062","city":"Petrey","state":"Alabama","code":"AL","county":"Crenshaw","lat":"31.7459","long":"-86.3239"},
{"zip":"36071","city":"Rutledge","state":"Alabama","code":"AL","county":"Crenshaw","lat":"31.7062","long":"-86.3715"},
{"zip":"35019","city":"Baileyton","state":"Alabama","code":"AL","county":"Cullman","lat":"34.2683","long":"-86.6213"},
{"zip":"35033","city":"Bremen","state":"Alabama","code":"AL","county":"Cullman","lat":"33.9737","long":"-87.0043"},
{"zip":"35053","city":"Crane Hill","state":"Alabama","code":"AL","county":"Cullman","lat":"34.0821","long":"-87.0484"},
{"zip":"35055","city":"Cullman","state":"Alabama","code":"AL","county":"Cullman","lat":"34.1761","long":"-86.8298"},
{"zip":"35056","city":"Cullman","state":"Alabama","code":"AL","county":"Cullman","lat":"34.1964","long":"-86.8952"},
{"zip":"35057","city":"Cullman","state":"Alabama","code":"AL","county":"Cullman","lat":"34.0878","long":"-86.9447"},
{"zip":"35058","city":"Cullman","state":"Alabama","code":"AL","county":"Cullman","lat":"34.2098","long":"-86.752"},
{"zip":"35070","city":"Garden City","state":"Alabama","code":"AL","county":"Cullman","lat":"34.0058","long":"-86.75"},
{"zip":"35077","city":"Hanceville","state":"Alabama","code":"AL","county":"Cullman","lat":"34.0516","long":"-86.7848"},
{"zip":"35083","city":"Holly Pond","state":"Alabama","code":"AL","county":"Cullman","lat":"34.1901","long":"-86.6174"},
{"zip":"35087","city":"Joppa","state":"Alabama","code":"AL","county":"Cullman","lat":"34.2837","long":"-86.5519"},
{"zip":"35098","city":"Logan","state":"Alabama","code":"AL","county":"Cullman","lat":"34.1377","long":"-87.0266"},
{"zip":"35179","city":"Vinemont","state":"Alabama","code":"AL","county":"Cullman","lat":"34.2621","long":"-86.9125"},
{"zip":"36311","city":"Ariton","state":"Alabama","code":"AL","county":"Dale","lat":"31.583","long":"-85.7077"},
{"zip":"36317","city":"Clopton","state":"Alabama","code":"AL","county":"Dale","lat":"31.6446","long":"-85.3911"},
{"zip":"36322","city":"Daleville","state":"Alabama","code":"AL","county":"Dale","lat":"31.2811","long":"-85.7305"},
{"zip":"36350","city":"Midland City","state":"Alabama","code":"AL","county":"Dale","lat":"31.3672","long":"-85.513"},
{"zip":"36352","city":"Newton","state":"Alabama","code":"AL","county":"Dale","lat":"31.3311","long":"-85.5992"},
{"zip":"36360","city":"Ozark","state":"Alabama","code":"AL","county":"Dale","lat":"31.4391","long":"-85.6436"},
{"zip":"36361","city":"Ozark","state":"Alabama","code":"AL","county":"Dale","lat":"31.4079","long":"-85.6035"},
{"zip":"36362","city":"Fort Rucker","state":"Alabama","code":"AL","county":"Dale","lat":"31.348","long":"-85.7214"},
{"zip":"36371","city":"Pinckard","state":"Alabama","code":"AL","county":"Dale","lat":"31.3074","long":"-85.5263"},
{"zip":"36374","city":"Skipperville","state":"Alabama","code":"AL","county":"Dale","lat":"31.5748","long":"-85.537"},
{"zip":"36701","city":"Selma","state":"Alabama","code":"AL","county":"Dallas","lat":"32.4197","long":"-87.0245"},
{"zip":"36702","city":"Selma","state":"Alabama","code":"AL","county":"Dallas","lat":"32.4193","long":"-87.1247"},
{"zip":"36703","city":"Selma","state":"Alabama","code":"AL","county":"Dallas","lat":"32.4156","long":"-87.0135"},
{"zip":"36758","city":"Plantersville","state":"Alabama","code":"AL","county":"Dallas","lat":"32.6176","long":"-86.9475"},
{"zip":"36759","city":"Marion Junction","state":"Alabama","code":"AL","county":"Dallas","lat":"32.4266","long":"-87.2702"},
{"zip":"36761","city":"Minter","state":"Alabama","code":"AL","county":"Dallas","lat":"32.1899","long":"-87.0633"},
{"zip":"36767","city":"Orrville","state":"Alabama","code":"AL","county":"Dallas","lat":"32.2949","long":"-87.2214"},
{"zip":"36771","city":"Prairie","state":"Alabama","code":"AL","county":"Dallas County","lat":"32.0848","long":"-87.4487"},
{"zip":"36773","city":"Safford","state":"Alabama","code":"AL","county":"Dallas","lat":"32.3002","long":"-87.3693"},
{"zip":"36775","city":"Sardis","state":"Alabama","code":"AL","county":"Dallas","lat":"32.2844","long":"-86.992"},
{"zip":"36785","city":"Tyler","state":"Alabama","code":"AL","county":"Dallas","lat":"32.3239","long":"-86.8646"},
{"zip":"35961","city":"Collinsville","state":"Alabama","code":"AL","county":"DeKalb","lat":"34.268","long":"-85.862"},
{"zip":"35962","city":"Crossville","state":"Alabama","code":"AL","county":"DeKalb","lat":"34.2588","long":"-86.0306"},
{"zip":"35963","city":"Dawson","state":"Alabama","code":"AL","county":"DeKalb","lat":"34.3568","long":"-85.9292"},
{"zip":"35967","city":"Fort Payne","state":"Alabama","code":"AL","county":"DeKalb","lat":"34.4368","long":"-85.7124"},
{"zip":"35968","city":"Fort Payne","state":"Alabama","code":"AL","county":"DeKalb","lat":"34.4898","long":"-85.7657"},
{"zip":"35971","city":"Fyffe","state":"Alabama","code":"AL","county":"DeKalb","lat":"34.4373","long":"-85.9288"},
{"zip":"35974","city":"Geraldine","state":"Alabama","code":"AL","county":"DeKalb","lat":"34.3592","long":"-86.024"},
{"zip":"35975","city":"Groveoak","state":"Alabama","code":"AL","county":"DeKalb","lat":"34.4359","long":"-86.04"},
{"zip":"35978","city":"Henagar","state":"Alabama","code":"AL","county":"DeKalb","lat":"34.6186","long":"-85.7274"},
{"zip":"35981","city":"Ider","state":"Alabama","code":"AL","county":"DeKalb","lat":"34.7351","long":"-85.6416"},
{"zip":"35984","city":"Mentone","state":"Alabama","code":"AL","county":"DeKalb","lat":"34.5872","long":"-85.5777"},
{"zip":"35986","city":"Rainsville","state":"Alabama","code":"AL","county":"DeKalb","lat":"34.4989","long":"-85.8446"},
{"zip":"35988","city":"Sylvania","state":"Alabama","code":"AL","county":"DeKalb","lat":"34.559","long":"-85.7921"},
{"zip":"35989","city":"Valley Head","state":"Alabama","code":"AL","county":"DeKalb","lat":"34.5697","long":"-85.6272"},
{"zip":"36020","city":"Coosada","state":"Alabama","code":"AL","county":"Elmore","lat":"32.5056","long":"-86.3322"},
{"zip":"36022","city":"Deatsville","state":"Alabama","code":"AL","county":"Elmore","lat":"32.6134","long":"-86.3382"},
{"zip":"36024","city":"Eclectic","state":"Alabama","code":"AL","county":"Elmore","lat":"32.6542","long":"-86.0316"},
{"zip":"36025","city":"Elmore","state":"Alabama","code":"AL","county":"Elmore","lat":"32.5454","long":"-86.3161"},
{"zip":"36045","city":"Kent","state":"Alabama","code":"AL","county":"Elmore","lat":"32.5876","long":"-86.133"},
{"zip":"36054","city":"Millbrook","state":"Alabama","code":"AL","county":"Elmore","lat":"32.4995","long":"-86.3641"},
{"zip":"36078","city":"Tallassee","state":"Alabama","code":"AL","county":"Elmore","lat":"32.551","long":"-85.8978"},
{"zip":"36080","city":"Titus","state":"Alabama","code":"AL","county":"Elmore","lat":"32.69","long":"-86.2393"},
{"zip":"36092","city":"Wetumpka","state":"Alabama","code":"AL","county":"Elmore","lat":"32.5927","long":"-86.2153"},
{"zip":"36093","city":"Wetumpka","state":"Alabama","code":"AL","county":"Elmore","lat":"32.5622","long":"-86.0994"},
{"zip":"36426","city":"Brewton","state":"Alabama","code":"AL","county":"Escambia","lat":"31.1294","long":"-87.0961"},
{"zip":"36427","city":"Brewton","state":"Alabama","code":"AL","county":"Escambia","lat":"31.0918","long":"-87.264"},
{"zip":"36441","city":"Flomaton","state":"Alabama","code":"AL","county":"Escambia","lat":"31.0402","long":"-87.2664"},
{"zip":"36502","city":"Atmore","state":"Alabama","code":"AL","county":"Escambia","lat":"31.0572","long":"-87.4873"},
{"zip":"36503","city":"Atmore","state":"Alabama","code":"AL","county":"Escambia","lat":"31.1282","long":"-87.1521"},
{"zip":"36504","city":"Atmore","state":"Alabama","code":"AL","county":"Escambia","lat":"31.0158","long":"-87.4972"},
{"zip":"36543","city":"Huxford","state":"Alabama","code":"AL","county":"Escambia","lat":"31.2161","long":"-87.4615"},
{"zip":"35901","city":"Gadsden","state":"Alabama","code":"AL","county":"Etowah","lat":"34.048","long":"-85.9246"},
{"zip":"35902","city":"Gadsden","state":"Alabama","code":"AL","county":"Etowah","lat":"33.9841","long":"-85.8034"},
{"zip":"35903","city":"Gadsden","state":"Alabama","code":"AL","county":"Etowah","lat":"33.9845","long":"-85.9077"},
{"zip":"35904","city":"Gadsden","state":"Alabama","code":"AL","county":"Etowah","lat":"34.0217","long":"-86.0495"},
{"zip":"35905","city":"Gadsden","state":"Alabama","code":"AL","county":"Etowah","lat":"33.9352","long":"-85.9576"},
{"zip":"35906","city":"Rainbow City","state":"Alabama","code":"AL","county":"Etowah","lat":"33.9318","long":"-86.0898"},
{"zip":"35907","city":"Gadsden","state":"Alabama","code":"AL","county":"Etowah","lat":"33.8979","long":"-86.0245"},
{"zip":"35952","city":"Altoona","state":"Alabama","code":"AL","county":"Etowah","lat":"34.071","long":"-86.2096"},
{"zip":"35954","city":"Attalla","state":"Alabama","code":"AL","county":"Etowah","lat":"34.0296","long":"-86.0967"},
{"zip":"35972","city":"Gallant","state":"Alabama","code":"AL","county":"Etowah","lat":"33.9976","long":"-86.2346"},
{"zip":"35990","city":"Walnut Grove","state":"Alabama","code":"AL","county":"Etowah","lat":"34.0566","long":"-86.2754"},
{"zip":"35999","city":"Gadsden","state":"Alabama","code":"AL","county":"Etowah County","lat":"34.0138","long":"-86.0084"},
{"zip":"35542","city":"Bankston","state":"Alabama","code":"AL","county":"Fayette","lat":"33.7008","long":"-87.6896"},
{"zip":"35545","city":"Belk","state":"Alabama","code":"AL","county":"Fayette","lat":"33.6452","long":"-87.9239"},
{"zip":"35546","city":"Berry","state":"Alabama","code":"AL","county":"Fayette","lat":"33.6945","long":"-87.6226"},
{"zip":"35555","city":"Fayette","state":"Alabama","code":"AL","county":"Fayette","lat":"33.6974","long":"-87.8346"},
{"zip":"35559","city":"Glen Allen","state":"Alabama","code":"AL","county":"Fayette","lat":"33.8896","long":"-87.6964"},
{"zip":"35571","city":"Hodges","state":"Alabama","code":"AL","county":"Franklin","lat":"34.3417","long":"-87.959"},
{"zip":"35581","city":"Phil Campbell","state":"Alabama","code":"AL","county":"Franklin","lat":"34.347","long":"-87.7154"},
{"zip":"35582","city":"Red Bay","state":"Alabama","code":"AL","county":"Franklin","lat":"34.4513","long":"-88.1129"},
{"zip":"35585","city":"Spruce Pine","state":"Alabama","code":"AL","county":"Franklin","lat":"34.4246","long":"-87.8145"},
{"zip":"35593","city":"Vina","state":"Alabama","code":"AL","county":"Franklin","lat":"34.3712","long":"-88.0774"},
{"zip":"35653","city":"Russellville","state":"Alabama","code":"AL","county":"Franklin","lat":"34.5066","long":"-87.7257"},
{"zip":"35654","city":"Russellville","state":"Alabama","code":"AL","county":"Franklin","lat":"34.4675","long":"-87.6478"},
{"zip":"36136","city":"Montgomery","state":"Alabama","code":"AL","county":"Geneva County","lat":"32.3544","long":"-86.2843"},
{"zip":"36313","city":"Bellwood","state":"Alabama","code":"AL","county":"Geneva","lat":"31.1501","long":"-85.8137"},
{"zip":"36314","city":"Black","state":"Alabama","code":"AL","county":"Geneva","lat":"31.0132","long":"-85.7456"},
{"zip":"36316","city":"Chancellor","state":"Alabama","code":"AL","county":"Geneva","lat":"31.1767","long":"-85.8135"},
{"zip":"36318","city":"Coffee Springs","state":"Alabama","code":"AL","county":"Geneva","lat":"31.1388","long":"-85.9182"},
{"zip":"36340","city":"Geneva","state":"Alabama","code":"AL","county":"Geneva","lat":"31.0414","long":"-85.8847"},
{"zip":"36344","city":"Hartford","state":"Alabama","code":"AL","county":"Geneva","lat":"31.086","long":"-85.7192"},
{"zip":"36349","city":"Malvern","state":"Alabama","code":"AL","county":"Geneva","lat":"31.1212","long":"-85.5592"},
{"zip":"36375","city":"Slocomb","state":"Alabama","code":"AL","county":"Geneva","lat":"31.0956","long":"-85.583"},
{"zip":"36477","city":"Samson","state":"Alabama","code":"AL","county":"Geneva","lat":"31.1049","long":"-86.0674"},
{"zip":"35443","city":"Boligee","state":"Alabama","code":"AL","county":"Greene","lat":"32.7746","long":"-88.0267"},
{"zip":"35448","city":"Clinton","state":"Alabama","code":"AL","county":"Greene","lat":"32.8357","long":"-87.9569"},
{"zip":"35462","city":"Eutaw","state":"Alabama","code":"AL","county":"Greene","lat":"32.8889","long":"-87.9303"},
{"zip":"35469","city":"Knoxville","state":"Alabama","code":"AL","county":"Greene","lat":"32.9824","long":"-87.7919"},
{"zip":"35491","city":"West Greene","state":"Alabama","code":"AL","county":"Greene","lat":"32.8357","long":"-87.9569"},
{"zip":"36740","city":"Forkland","state":"Alabama","code":"AL","county":"Greene","lat":"32.6108","long":"-87.8441"},
{"zip":"35441","city":"Akron","state":"Alabama","code":"AL","county":"Hale","lat":"32.8553","long":"-87.7219"},
{"zip":"35474","city":"Moundville","state":"Alabama","code":"AL","county":"Hale","lat":"32.9108","long":"-87.5935"},
{"zip":"36742","city":"Gallion","state":"Alabama","code":"AL","county":"Hale","lat":"32.5298","long":"-87.6985"},
{"zip":"36744","city":"Greensboro","state":"Alabama","code":"AL","county":"Hale","lat":"32.7167","long":"-87.5905"},
{"zip":"36765","city":"Newbern","state":"Alabama","code":"AL","county":"Hale","lat":"32.5515","long":"-87.5615"},
{"zip":"36776","city":"Sawyerville","state":"Alabama","code":"AL","county":"Hale","lat":"32.7578","long":"-87.7402"},
{"zip":"36310","city":"Abbeville","state":"Alabama","code":"AL","county":"Henry","lat":"31.5755","long":"-85.279"},
{"zip":"36345","city":"Headland","state":"Alabama","code":"AL","county":"Henry","lat":"31.3534","long":"-85.3323"},
{"zip":"36353","city":"Newville","state":"Alabama","code":"AL","county":"Henry","lat":"31.4403","long":"-85.3287"},
{"zip":"36373","city":"Shorterville","state":"Alabama","code":"AL","county":"Henry","lat":"31.501","long":"-85.1135"},
{"zip":"36301","city":"Dothan","state":"Alabama","code":"AL","county":"Houston","lat":"31.1481","long":"-85.3718"},
{"zip":"36302","city":"Dothan","state":"Alabama","code":"AL","county":"Houston","lat":"31.156","long":"-85.3559"},
{"zip":"36303","city":"Dothan","state":"Alabama","code":"AL","county":"Houston","lat":"31.2668","long":"-85.3971"},
{"zip":"36304","city":"Dothan","state":"Alabama","code":"AL","county":"Houston","lat":"31.156","long":"-85.3559"},
{"zip":"36305","city":"Dothan","state":"Alabama","code":"AL","county":"Houston","lat":"31.2197","long":"-85.4828"},
{"zip":"36312","city":"Ashford","state":"Alabama","code":"AL","county":"Houston","lat":"31.1888","long":"-85.2535"},
{"zip":"36319","city":"Columbia","state":"Alabama","code":"AL","county":"Houston","lat":"31.3352","long":"-85.1455"},
{"zip":"36320","city":"Cottonwood","state":"Alabama","code":"AL","county":"Houston","lat":"31.0507","long":"-85.3154"},
{"zip":"36321","city":"Cowarts","state":"Alabama","code":"AL","county":"Houston","lat":"31.2025","long":"-85.3014"},
{"zip":"36343","city":"Gordon","state":"Alabama","code":"AL","county":"Houston","lat":"31.1002","long":"-85.1234"},
{"zip":"36370","city":"Pansey","state":"Alabama","code":"AL","county":"Houston","lat":"31.1403","long":"-85.1573"},
{"zip":"36376","city":"Webb","state":"Alabama","code":"AL","county":"Houston","lat":"31.2656","long":"-85.2544"},
{"zip":"35740","city":"Bridgeport","state":"Alabama","code":"AL","county":"Jackson","lat":"34.9446","long":"-85.7277"},
{"zip":"35744","city":"Dutton","state":"Alabama","code":"AL","county":"Jackson","lat":"34.6046","long":"-85.9067"},
{"zip":"35745","city":"Estillfork","state":"Alabama","code":"AL","county":"Jackson","lat":"34.913","long":"-86.1716"},
{"zip":"35746","city":"Fackler","state":"Alabama","code":"AL","county":"Jackson","lat":"34.8259","long":"-85.9846"},
{"zip":"35751","city":"Hollytree","state":"Alabama","code":"AL","county":"Jackson","lat":"34.7955","long":"-86.2743"},
{"zip":"35752","city":"Hollywood","state":"Alabama","code":"AL","county":"Jackson","lat":"34.7304","long":"-85.9532"},
{"zip":"35755","city":"Langston","state":"Alabama","code":"AL","county":"Jackson","lat":"34.5001","long":"-86.1353"},
{"zip":"35764","city":"Paint Rock","state":"Alabama","code":"AL","county":"Jackson","lat":"34.7031","long":"-86.3068"},
{"zip":"35765","city":"Pisgah","state":"Alabama","code":"AL","county":"Jackson","lat":"34.6886","long":"-85.803"},
{"zip":"35766","city":"Princeton","state":"Alabama","code":"AL","county":"Jackson","lat":"34.8713","long":"-86.2513"},
{"zip":"35768","city":"Scottsboro","state":"Alabama","code":"AL","county":"Jackson","lat":"34.7507","long":"-86.1422"},
{"zip":"35769","city":"Scottsboro","state":"Alabama","code":"AL","county":"Jackson","lat":"34.618","long":"-86.0562"},
{"zip":"35771","city":"Section","state":"Alabama","code":"AL","county":"Jackson","lat":"34.5433","long":"-85.994"},
{"zip":"35772","city":"Stevenson","state":"Alabama","code":"AL","county":"Jackson","lat":"34.8769","long":"-85.8508"},
{"zip":"35774","city":"Trenton","state":"Alabama","code":"AL","county":"Jackson","lat":"34.7632","long":"-86.2295"},
{"zip":"35776","city":"Woodville","state":"Alabama","code":"AL","county":"Jackson","lat":"34.6689","long":"-86.2296"},
{"zip":"35958","city":"Bryant","state":"Alabama","code":"AL","county":"Jackson","lat":"34.945","long":"-85.6324"},
{"zip":"35966","city":"Flat Rock","state":"Alabama","code":"AL","county":"Jackson","lat":"34.8076","long":"-85.7084"},
{"zip":"35979","city":"Higdon","state":"Alabama","code":"AL","county":"Jackson","lat":"34.8391","long":"-85.6196"},
{"zip":"35005","city":"Adamsville","state":"Alabama","code":"AL","county":"Jefferson","lat":"33.5884","long":"-86.9597"},
{"zip":"35006","city":"Adger","state":"Alabama","code":"AL","county":"Jefferson","lat":"33.4343","long":"-87.1675"},
{"zip":"35015","city":"Alton","state":"Alabama","code":"AL","county":"Jefferson","lat":"33.5446","long":"-86.9292"},
{"zip":"35020","city":"Bessemer","state":"Alabama","code":"AL","county":"Jefferson","lat":"33.409","long":"-86.9475"},
{"zip":"35021","city":"Bessemer","state":"Alabama","code":"AL","county":"Jefferson","lat":"33.5446","long":"-86.9292"},
{"zip":"35022","city":"Bessemer","state":"Alabama","code":"AL","county":"Jefferson","lat":"33.3224","long":"-86.9657"},
{"zip":"35023","city":"Bessemer","state":"Alabama","code":"AL","county":"Jefferson","lat":"33.468","long":"-87.0924"},
{"zip":"35036","city":"Brookside","state":"Alabama","code":"AL","county":"Jefferson","lat":"33.6363","long":"-86.9162"},
{"zip":"35041","city":"Cardiff","state":"Alabama","code":"AL","county":"Jefferson","lat":"33.6467","long":"-86.9318"},
{"zip":"35048","city":"Clay","state":"Alabama","code":"AL","county":"Jefferson","lat":"33.5446","long":"-86.9292"},
{"zip":"35060","city":"Docena","state":"Alabama","code":"AL","county":"Jefferson","lat":"33.5589","long":"-86.9294"},
{"zip":"35061","city":"Dolomite","state":"Alabama","code":"AL","county":"Jefferson","lat":"33.4654","long":"-86.9564"},
{"zip":"35064","city":"Fairfield","state":"Alabama","code":"AL","county":"Jefferson","lat":"33.4735","long":"-86.9183"},
{"zip":"35068","city":"Fultondale","state":"Alabama","code":"AL","county":"Jefferson","lat":"33.6017","long":"-86.8265"},
{"zip":"35071","city":"Gardendale","state":"Alabama","code":"AL","county":"Jefferson","lat":"33.7189","long":"-86.8225"},
{"zip":"35073","city":"Graysville","state":"Alabama","code":"AL","county":"Jefferson","lat":"33.6539","long":"-86.9803"},
{"zip":"35091","city":"Kimberly","state":"Alabama","code":"AL","county":"Jefferson","lat":"33.7684","long":"-86.8084"},
{"zip":"35094","city":"Leeds","state":"Alabama","code":"AL","county":"Jefferson","lat":"33.5283","long":"-86.5748"},
{"zip":"35111","city":"Mc Calla","state":"Alabama","code":"AL","county":"Jefferson","lat":"33.2845","long":"-87.1024"},
{"zip":"35116","city":"Morris","state":"Alabama","code":"AL","county":"Jefferson","lat":"33.7392","long":"-86.7726"},
{"zip":"35117","city":"Mount Olive","state":"Alabama","code":"AL","county":"Jefferson","lat":"33.6768","long":"-86.8717"},
{"zip":"35118","city":"Mulga","state":"Alabama","code":"AL","county":"Jefferson","lat":"33.5363","long":"-87.051"},
{"zip":"35119","city":"New Castle","state":"Alabama","code":"AL","county":"Jefferson","lat":"33.6508","long":"-86.7697"},
{"zip":"35123","city":"Palmerdale","state":"Alabama","code":"AL","county":"Jefferson","lat":"33.5446","long":"-86.9292"},
{"zip":"35126","city":"Pinson","state":"Alabama","code":"AL","county":"Jefferson","lat":"33.7299","long":"-86.6451"},
{"zip":"35127","city":"Pleasant Grove","state":"Alabama","code":"AL","county":"Jefferson","lat":"33.4883","long":"-86.9766"},
{"zip":"35139","city":"Sayre","state":"Alabama","code":"AL","county":"Jefferson","lat":"33.7111","long":"-86.9759"},
{"zip":"35142","city":"Shannon","state":"Alabama","code":"AL","county":"Jefferson","lat":"33.4069","long":"-86.8735"},
{"zip":"35172","city":"Trafford","state":"Alabama","code":"AL","county":"Jefferson","lat":"33.819","long":"-86.7434"},
{"zip":"35173","city":"Trussville","state":"Alabama","code":"AL","county":"Jefferson","lat":"33.6339","long":"-86.5981"},
{"zip":"35180","city":"Warrior","state":"Alabama","code":"AL","county":"Jefferson","lat":"33.8529","long":"-86.8198"},
{"zip":"35181","city":"Watson","state":"Alabama","code":"AL","county":"Jefferson","lat":"33.5446","long":"-86.9292"},
{"zip":"35201","city":"Birmingham","state":"Alabama","code":"AL","county":"Jefferson","lat":"33.4564","long":"-86.8019"},
{"zip":"35202","city":"Birmingham","state":"Alabama","code":"AL","county":"Jefferson","lat":"33.5446","long":"-86.9292"},
{"zip":"35203","city":"Birmingham","state":"Alabama","code":"AL","county":"Jefferson","lat":"33.521","long":"-86.8066"},
{"zip":"35204","city":"Birmingham","state":"Alabama","code":"AL","county":"Jefferson","lat":"33.518","long":"-86.8372"},
{"zip":"35205","city":"Birmingham","state":"Alabama","code":"AL","county":"Jefferson","lat":"33.4951","long":"-86.8059"},
{"zip":"35206","city":"Birmingham","state":"Alabama","code":"AL","county":"Jefferson","lat":"33.5678","long":"-86.7199"},
{"zip":"35207","city":"Birmingham","state":"Alabama","code":"AL","county":"Jefferson","lat":"33.5594","long":"-86.8153"},
{"zip":"35208","city":"Birmingham","state":"Alabama","code":"AL","county":"Jefferson","lat":"33.4977","long":"-86.8799"},
{"zip":"35209","city":"Birmingham","state":"Alabama","code":"AL","county":"Jefferson","lat":"33.4653","long":"-86.8082"},
{"zip":"35210","city":"Birmingham","state":"Alabama","code":"AL","county":"Jefferson","lat":"33.5452","long":"-86.6655"},
{"zip":"35211","city":"Birmingham","state":"Alabama","code":"AL","county":"Jefferson","lat":"33.4816","long":"-86.859"},
{"zip":"35212","city":"Birmingham","state":"Alabama","code":"AL","county":"Jefferson","lat":"33.5409","long":"-86.7495"},
{"zip":"35213","city":"Birmingham","state":"Alabama","code":"AL","county":"Jefferson","lat":"33.5066","long":"-86.7428"},
{"zip":"35214","city":"Birmingham","state":"Alabama","code":"AL","county":"Jefferson","lat":"33.5554","long":"-86.887"},
{"zip":"35215","city":"Birmingham","state":"Alabama","code":"AL","county":"Jefferson","lat":"33.6493","long":"-86.7057"},
{"zip":"35216","city":"Birmingham","state":"Alabama","code":"AL","county":"Jefferson","lat":"33.4188","long":"-86.7867"},
{"zip":"35217","city":"Birmingham","state":"Alabama","code":"AL","county":"Jefferson","lat":"33.5887","long":"-86.765"},
{"zip":"35218","city":"Birmingham","state":"Alabama","code":"AL","county":"Jefferson","lat":"33.506","long":"-86.893"},
{"zip":"35219","city":"Birmingham","state":"Alabama","code":"AL","county":"Jefferson","lat":"33.5446","long":"-86.9292"},
{"zip":"35220","city":"Birmingham","state":"Alabama","code":"AL","county":"Jefferson","lat":"33.5446","long":"-86.9292"},
{"zip":"35221","city":"Birmingham","state":"Alabama","code":"AL","county":"Jefferson","lat":"33.4523","long":"-86.8935"},
{"zip":"35222","city":"Birmingham","state":"Alabama","code":"AL","county":"Jefferson","lat":"33.5219","long":"-86.7666"},
{"zip":"35223","city":"Birmingham","state":"Alabama","code":"AL","county":"Jefferson","lat":"33.4995","long":"-86.7268"},
{"zip":"35224","city":"Birmingham","state":"Alabama","code":"AL","county":"Jefferson","lat":"33.5191","long":"-86.9342"},
{"zip":"35225","city":"Birmingham","state":"Alabama","code":"AL","county":"Jefferson","lat":"33.5446","long":"-86.9292"},
{"zip":"35226","city":"Birmingham","state":"Alabama","code":"AL","county":"Jefferson","lat":"33.3967","long":"-86.8346"},
{"zip":"35228","city":"Birmingham","state":"Alabama","code":"AL","county":"Jefferson","lat":"33.4558","long":"-86.9118"},
{"zip":"35229","city":"Birmingham","state":"Alabama","code":"AL","county":"Jefferson","lat":"33.4629","long":"-86.7904"},
{"zip":"35230","city":"Birmingham","state":"Alabama","code":"AL","county":"Jefferson","lat":"33.5446","long":"-86.9292"},
{"zip":"35231","city":"Birmingham","state":"Alabama","code":"AL","county":"Jefferson","lat":"33.5446","long":"-86.9292"},
{"zip":"35232","city":"Birmingham","state":"Alabama","code":"AL","county":"Jefferson","lat":"33.5446","long":"-86.9292"},
{"zip":"35233","city":"Birmingham","state":"Alabama","code":"AL","county":"Jefferson","lat":"33.5062","long":"-86.8003"},
{"zip":"35234","city":"Birmingham","state":"Alabama","code":"AL","county":"Jefferson","lat":"33.5378","long":"-86.8068"},
{"zip":"35235","city":"Birmingham","state":"Alabama","code":"AL","county":"Jefferson","lat":"33.6328","long":"-86.6493"},
{"zip":"35236","city":"Birmingham","state":"Alabama","code":"AL","county":"Jefferson","lat":"33.5446","long":"-86.9292"},
{"zip":"35237","city":"Birmingham","state":"Alabama","code":"AL","county":"Jefferson","lat":"33.5446","long":"-86.9292"},
{"zip":"35238","city":"Birmingham","state":"Alabama","code":"AL","county":"Jefferson","lat":"33.5446","long":"-86.9292"},
{"zip":"35240","city":"Birmingham","state":"Alabama","code":"AL","county":"Jefferson","lat":"33.4259","long":"-86.7769"},
{"zip":"35243","city":"Birmingham","state":"Alabama","code":"AL","county":"Jefferson","lat":"33.4459","long":"-86.7502"},
{"zip":"35244","city":"Birmingham","state":"Alabama","code":"AL","county":"Jefferson","lat":"33.3538","long":"-86.8254"},
{"zip":"35245","city":"Birmingham","state":"Alabama","code":"AL","county":"Jefferson","lat":"33.5446","long":"-86.9292"},
{"zip":"35246","city":"Birmingham","state":"Alabama","code":"AL","county":"Jefferson","lat":"33.5446","long":"-86.9292"},
{"zip":"35249","city":"Birmingham","state":"Alabama","code":"AL","county":"Jefferson","lat":"33.5446","long":"-86.9292"},
{"zip":"35253","city":"Birmingham","state":"Alabama","code":"AL","county":"Jefferson","lat":"33.5446","long":"-86.9292"},
{"zip":"35254","city":"Birmingham","state":"Alabama","code":"AL","county":"Jefferson","lat":"33.5446","long":"-86.9292"},
{"zip":"35255","city":"Birmingham","state":"Alabama","code":"AL","county":"Jefferson","lat":"33.5446","long":"-86.9292"},
{"zip":"35259","city":"Birmingham","state":"Alabama","code":"AL","county":"Jefferson","lat":"33.5446","long":"-86.9292"},
{"zip":"35260","city":"Birmingham","state":"Alabama","code":"AL","county":"Jefferson","lat":"33.5446","long":"-86.9292"},
{"zip":"35261","city":"Birmingham","state":"Alabama","code":"AL","county":"Jefferson","lat":"33.5446","long":"-86.9292"},
{"zip":"35263","city":"Birmingham","state":"Alabama","code":"AL","county":"Jefferson","lat":"33.5225","long":"-86.8094"},
{"zip":"35266","city":"Birmingham","state":"Alabama","code":"AL","county":"Jefferson","lat":"33.3729","long":"-86.8531"},
{"zip":"35277","city":"Birmingham","state":"Alabama","code":"AL","county":"Jefferson","lat":"33.5446","long":"-86.9292"},
{"zip":"35278","city":"Birmingham","state":"Alabama","code":"AL","county":"Jefferson","lat":"33.5446","long":"-86.9292"},
{"zip":"35279","city":"Birmingham","state":"Alabama","code":"AL","county":"Jefferson","lat":"33.5446","long":"-86.9292"},
{"zip":"35280","city":"Birmingham","state":"Alabama","code":"AL","county":"Jefferson","lat":"33.5446","long":"-86.9292"},
{"zip":"35281","city":"Birmingham","state":"Alabama","code":"AL","county":"Jefferson","lat":"33.5446","long":"-86.9292"},
{"zip":"35282","city":"Birmingham","state":"Alabama","code":"AL","county":"Jefferson","lat":"33.5446","long":"-86.9292"},
{"zip":"35283","city":"Birmingham","state":"Alabama","code":"AL","county":"Jefferson","lat":"33.5446","long":"-86.9292"},
{"zip":"35285","city":"Birmingham","state":"Alabama","code":"AL","county":"Jefferson","lat":"33.5446","long":"-86.9292"},
{"zip":"35286","city":"Birmingham","state":"Alabama","code":"AL","county":"Jefferson","lat":"33.5446","long":"-86.9292"},
{"zip":"35287","city":"Birmingham","state":"Alabama","code":"AL","county":"Jefferson","lat":"33.5446","long":"-86.9292"},
{"zip":"35288","city":"Birmingham","state":"Alabama","code":"AL","county":"Jefferson","lat":"33.4458","long":"-86.9285"},
{"zip":"35289","city":"Birmingham","state":"Alabama","code":"AL","county":"Jefferson","lat":"33.5446","long":"-86.9292"},
{"zip":"35290","city":"Birmingham","state":"Alabama","code":"AL","county":"Jefferson","lat":"33.5446","long":"-86.9292"},
{"zip":"35291","city":"Birmingham","state":"Alabama","code":"AL","county":"Jefferson","lat":"33.5446","long":"-86.9292"},
{"zip":"35292","city":"Birmingham","state":"Alabama","code":"AL","county":"Jefferson","lat":"33.5446","long":"-86.9292"},
{"zip":"35293","city":"Birmingham","state":"Alabama","code":"AL","county":"Jefferson","lat":"33.5446","long":"-86.9292"},
{"zip":"35294","city":"Birmingham","state":"Alabama","code":"AL","county":"Jefferson","lat":"33.5446","long":"-86.9292"},
{"zip":"35295","city":"Birmingham","state":"Alabama","code":"AL","county":"Jefferson","lat":"33.5446","long":"-86.9292"},
{"zip":"35296","city":"Birmingham","state":"Alabama","code":"AL","county":"Jefferson","lat":"33.5446","long":"-86.9292"},
{"zip":"35297","city":"Birmingham","state":"Alabama","code":"AL","county":"Jefferson","lat":"33.5446","long":"-86.9292"},
{"zip":"35298","city":"Birmingham","state":"Alabama","code":"AL","county":"Jefferson","lat":"33.5446","long":"-86.9292"},
{"zip":"35299","city":"Birmingham","state":"Alabama","code":"AL","county":"Jefferson","lat":"33.5446","long":"-86.9292"},
{"zip":"35544","city":"Beaverton","state":"Alabama","code":"AL","county":"Lamar","lat":"33.9429","long":"-88.0157"},
{"zip":"35552","city":"Detroit","state":"Alabama","code":"AL","county":"Lamar","lat":"34.0109","long":"-88.1606"},
{"zip":"35574","city":"Kennedy","state":"Alabama","code":"AL","county":"Lamar","lat":"33.6153","long":"-87.9948"},
{"zip":"35576","city":"Millport","state":"Alabama","code":"AL","county":"Lamar","lat":"33.5401","long":"-88.2"},
{"zip":"35586","city":"Sulligent","state":"Alabama","code":"AL","county":"Lamar","lat":"33.8549","long":"-88.1508"},
{"zip":"35592","city":"Vernon","state":"Alabama","code":"AL","county":"Lamar","lat":"33.7613","long":"-88.0979"},
{"zip":"35610","city":"Anderson","state":"Alabama","code":"AL","county":"Lauderdale","lat":"34.9424","long":"-87.2734"},
{"zip":"35617","city":"Cloverdale","state":"Alabama","code":"AL","county":"Lauderdale","lat":"34.87","long":"-87.7069"},
{"zip":"35630","city":"Florence","state":"Alabama","code":"AL","county":"Lauderdale","lat":"34.8305","long":"-87.656"},
{"zip":"35631","city":"Florence","state":"Alabama","code":"AL","county":"Lauderdale","lat":"34.87","long":"-87.7069"},
{"zip":"35632","city":"Florence","state":"Alabama","code":"AL","county":"Lauderdale","lat":"34.87","long":"-87.7069"},
{"zip":"35633","city":"Florence","state":"Alabama","code":"AL","county":"Lauderdale","lat":"34.8825","long":"-87.7398"},
{"zip":"35634","city":"Florence","state":"Alabama","code":"AL","county":"Lauderdale","lat":"34.9186","long":"-87.6136"},
{"zip":"35645","city":"Killen","state":"Alabama","code":"AL","county":"Lauderdale","lat":"34.9016","long":"-87.5082"},
{"zip":"35648","city":"Lexington","state":"Alabama","code":"AL","county":"Lauderdale","lat":"34.9559","long":"-87.3935"},
{"zip":"35652","city":"Rogersville","state":"Alabama","code":"AL","county":"Lauderdale","lat":"34.8495","long":"-87.3237"},
{"zip":"35677","city":"Waterloo","state":"Alabama","code":"AL","county":"Lauderdale","lat":"34.9357","long":"-87.9624"},
{"zip":"35618","city":"Courtland","state":"Alabama","code":"AL","county":"Lawrence","lat":"34.6719","long":"-87.3143"},
{"zip":"35643","city":"Hillsboro","state":"Alabama","code":"AL","county":"Lawrence","lat":"34.6476","long":"-87.1804"},
{"zip":"35650","city":"Moulton","state":"Alabama","code":"AL","county":"Lawrence","lat":"34.5058","long":"-87.2224"},
{"zip":"35651","city":"Mount Hope","state":"Alabama","code":"AL","county":"Lawrence","lat":"34.4793","long":"-87.4769"},
{"zip":"35672","city":"Town Creek","state":"Alabama","code":"AL","county":"Lawrence","lat":"34.6491","long":"-87.4262"},
{"zip":"36801","city":"Opelika","state":"Alabama","code":"AL","county":"Lee","lat":"32.6211","long":"-85.3929"},
{"zip":"36802","city":"Opelika","state":"Alabama","code":"AL","county":"Lee","lat":"32.5782","long":"-85.349"},
{"zip":"36803","city":"Opelika","state":"Alabama","code":"AL","county":"Lee","lat":"32.5226","long":"-85.4315"},
{"zip":"36804","city":"Opelika","state":"Alabama","code":"AL","county":"Lee","lat":"32.5768","long":"-85.312"},
{"zip":"36830","city":"Auburn","state":"Alabama","code":"AL","county":"Lee","lat":"32.5475","long":"-85.4682"},
{"zip":"36831","city":"Auburn","state":"Alabama","code":"AL","county":"Lee","lat":"32.5782","long":"-85.349"},
{"zip":"36832","city":"Auburn","state":"Alabama","code":"AL","county":"Lee","lat":"32.592","long":"-85.5189"},
{"zip":"36849","city":"Auburn University","state":"Alabama","code":"AL","county":"Lee","lat":"32.6024","long":"-85.4873"},
{"zip":"36865","city":"Loachapoka","state":"Alabama","code":"AL","county":"Lee","lat":"32.5782","long":"-85.349"},
{"zip":"36872","city":"Valley","state":"Alabama","code":"AL","county":"Lee","lat":"32.5782","long":"-85.349"},
{"zip":"36874","city":"Salem","state":"Alabama","code":"AL","county":"Lee","lat":"32.6212","long":"-85.184"},
{"zip":"36877","city":"Smiths","state":"Alabama","code":"AL","county":"Lee","lat":"32.5201","long":"-85.1"},
{"zip":"36879","city":"Waverly","state":"Alabama","code":"AL","county":"Lee","lat":"32.7632","long":"-85.5144"},
{"zip":"35611","city":"Athens","state":"Alabama","code":"AL","county":"Limestone","lat":"34.8036","long":"-86.9707"},
{"zip":"35612","city":"Athens","state":"Alabama","code":"AL","county":"Limestone","lat":"34.7749","long":"-87.0305"},
{"zip":"35613","city":"Athens","state":"Alabama","code":"AL","county":"Limestone","lat":"34.8317","long":"-86.8867"},
{"zip":"35614","city":"Athens","state":"Alabama","code":"AL","county":"Limestone","lat":"34.8474","long":"-87.0607"},
{"zip":"35615","city":"Belle Mina","state":"Alabama","code":"AL","county":"Limestone","lat":"34.7749","long":"-87.0305"},
{"zip":"35620","city":"Elkmont","state":"Alabama","code":"AL","county":"Limestone","lat":"34.9152","long":"-86.9105"},
{"zip":"35647","city":"Lester","state":"Alabama","code":"AL","county":"Limestone","lat":"34.9596","long":"-87.1006"},
{"zip":"35649","city":"Mooresville","state":"Alabama","code":"AL","county":"Limestone","lat":"34.6259","long":"-86.8746"},
{"zip":"35671","city":"Tanner","state":"Alabama","code":"AL","county":"Limestone","lat":"34.6796","long":"-86.9625"},
{"zip":"35739","city":"Ardmore","state":"Alabama","code":"AL","county":"Limestone","lat":"34.9804","long":"-86.8346"},
{"zip":"35742","city":"Capshaw","state":"Alabama","code":"AL","county":"Limestone","lat":"34.7749","long":"-87.0305"},
{"zip":"36032","city":"Fort Deposit","state":"Alabama","code":"AL","county":"Lowndes","lat":"31.996","long":"-86.5761"},
{"zip":"36040","city":"Hayneville","state":"Alabama","code":"AL","county":"Lowndes","lat":"32.1957","long":"-86.655"},
{"zip":"36047","city":"Letohatchee","state":"Alabama","code":"AL","county":"Lowndes","lat":"32.0862","long":"-86.488"},
{"zip":"36752","city":"Lowndesboro","state":"Alabama","code":"AL","county":"Lowndes","lat":"32.2943","long":"-86.6471"},
{"zip":"36031","city":"Fort Davis","state":"Alabama","code":"AL","county":"Macon","lat":"32.2507","long":"-85.7524"},
{"zip":"36039","city":"Hardaway","state":"Alabama","code":"AL","county":"Macon","lat":"32.3129","long":"-85.8838"},
{"zip":"36075","city":"Shorter","state":"Alabama","code":"AL","county":"Macon","lat":"32.3836","long":"-85.9162"},
{"zip":"36083","city":"Tuskegee","state":"Alabama","code":"AL","county":"Macon","lat":"32.4316","long":"-85.6861"},
{"zip":"36087","city":"Tuskegee Institute","state":"Alabama","code":"AL","county":"Macon","lat":"32.4093","long":"-85.738"},
{"zip":"36088","city":"Tuskegee Institute","state":"Alabama","code":"AL","county":"Macon","lat":"32.4145","long":"-85.7252"},
{"zip":"36866","city":"Notasulga","state":"Alabama","code":"AL","county":"Macon","lat":"32.5437","long":"-85.6871"},
{"zip":"35741","city":"Brownsboro","state":"Alabama","code":"AL","county":"Madison","lat":"34.7167","long":"-86.4687"},
{"zip":"35748","city":"Gurley","state":"Alabama","code":"AL","county":"Madison","lat":"34.714","long":"-86.394"},
{"zip":"35749","city":"Harvest","state":"Alabama","code":"AL","county":"Madison","lat":"34.8273","long":"-86.7499"},
{"zip":"35750","city":"Hazel Green","state":"Alabama","code":"AL","county":"Madison","lat":"34.9496","long":"-86.5935"},
{"zip":"35756","city":"Madison","state":"Alabama","code":"AL","county":"Madison","lat":"34.643","long":"-86.8168"},
{"zip":"35757","city":"Madison","state":"Alabama","code":"AL","county":"Madison","lat":"34.7782","long":"-86.7442"},
{"zip":"35758","city":"Madison","state":"Alabama","code":"AL","county":"Madison","lat":"34.7108","long":"-86.7425"},
{"zip":"35759","city":"Meridianville","state":"Alabama","code":"AL","county":"Madison","lat":"34.8618","long":"-86.5789"},
{"zip":"35760","city":"New Hope","state":"Alabama","code":"AL","county":"Madison","lat":"34.5494","long":"-86.3961"},
{"zip":"35761","city":"New Market","state":"Alabama","code":"AL","county":"Madison","lat":"34.9","long":"-86.4487"},
{"zip":"35762","city":"Normal","state":"Alabama","code":"AL","county":"Madison","lat":"34.734","long":"-86.5229"},
{"zip":"35763","city":"Owens Cross Roads","state":"Alabama","code":"AL","county":"Madison","lat":"34.6215","long":"-86.4644"},
{"zip":"35767","city":"Ryland","state":"Alabama","code":"AL","county":"Madison","lat":"34.734","long":"-86.5229"},
{"zip":"35773","city":"Toney","state":"Alabama","code":"AL","county":"Madison","lat":"34.9116","long":"-86.7"},
{"zip":"35801","city":"Huntsville","state":"Alabama","code":"AL","county":"Madison","lat":"34.7269","long":"-86.5673"},
{"zip":"35802","city":"Huntsville","state":"Alabama","code":"AL","county":"Madison","lat":"34.6679","long":"-86.5603"},
{"zip":"35803","city":"Huntsville","state":"Alabama","code":"AL","county":"Madison","lat":"34.6205","long":"-86.551"},
{"zip":"35804","city":"Huntsville","state":"Alabama","code":"AL","county":"Madison","lat":"34.7284","long":"-86.5853"},
{"zip":"35805","city":"Huntsville","state":"Alabama","code":"AL","county":"Madison","lat":"34.7059","long":"-86.6165"},
{"zip":"35806","city":"Huntsville","state":"Alabama","code":"AL","county":"Madison","lat":"34.7448","long":"-86.6704"},
{"zip":"35807","city":"Huntsville","state":"Alabama","code":"AL","county":"Madison","lat":"34.734","long":"-86.5229"},
{"zip":"35808","city":"Huntsville","state":"Alabama","code":"AL","county":"Madison","lat":"34.6845","long":"-86.6538"},
{"zip":"35809","city":"Huntsville","state":"Alabama","code":"AL","county":"Madison","lat":"34.734","long":"-86.5229"},
{"zip":"35810","city":"Huntsville","state":"Alabama","code":"AL","county":"Madison","lat":"34.7784","long":"-86.6091"},
{"zip":"35811","city":"Huntsville","state":"Alabama","code":"AL","county":"Madison","lat":"34.7789","long":"-86.5438"},
{"zip":"35812","city":"Huntsville","state":"Alabama","code":"AL","county":"Madison","lat":"34.734","long":"-86.5229"},
{"zip":"35813","city":"Huntsville","state":"Alabama","code":"AL","county":"Madison","lat":"34.734","long":"-86.5229"},
{"zip":"35814","city":"Huntsville","state":"Alabama","code":"AL","county":"Madison","lat":"34.734","long":"-86.5229"},
{"zip":"35815","city":"Huntsville","state":"Alabama","code":"AL","county":"Madison","lat":"34.734","long":"-86.5229"},
{"zip":"35816","city":"Huntsville","state":"Alabama","code":"AL","county":"Madison","lat":"34.7389","long":"-86.6249"},
{"zip":"35824","city":"Huntsville","state":"Alabama","code":"AL","county":"Madison","lat":"34.6583","long":"-86.7295"},
{"zip":"35893","city":"Huntsville","state":"Alabama","code":"AL","county":"Madison","lat":"34.734","long":"-86.5229"},
{"zip":"35894","city":"Huntsville","state":"Alabama","code":"AL","county":"Madison","lat":"34.734","long":"-86.5229"},
{"zip":"35895","city":"Huntsville","state":"Alabama","code":"AL","county":"Madison","lat":"34.734","long":"-86.5229"},
{"zip":"35896","city":"Huntsville","state":"Alabama","code":"AL","county":"Madison","lat":"34.7543","long":"-86.6546"},
{"zip":"35897","city":"Huntsville","state":"Alabama","code":"AL","county":"Madison","lat":"34.734","long":"-86.5229"},
{"zip":"35898","city":"Huntsville","state":"Alabama","code":"AL","county":"Madison","lat":"34.734","long":"-86.5229"},
{"zip":"35899","city":"Huntsville","state":"Alabama","code":"AL","county":"Madison","lat":"34.7339","long":"-86.6456"},
{"zip":"36732","city":"Demopolis","state":"Alabama","code":"AL","county":"Marengo","lat":"32.4908","long":"-87.8397"},
{"zip":"36736","city":"Dixons Mills","state":"Alabama","code":"AL","county":"Marengo","lat":"32.0672","long":"-87.7454"},
{"zip":"36738","city":"Faunsdale","state":"Alabama","code":"AL","county":"Marengo","lat":"32.4233","long":"-87.6181"},
{"zip":"36745","city":"Jefferson","state":"Alabama","code":"AL","county":"Marengo","lat":"32.414","long":"-87.8986"},
{"zip":"36748","city":"Linden","state":"Alabama","code":"AL","county":"Marengo","lat":"32.3053","long":"-87.7954"},
{"zip":"36754","city":"Magnolia","state":"Alabama","code":"AL","county":"Marengo","lat":"32.1419","long":"-87.6998"},
{"zip":"36763","city":"Myrtlewood","state":"Alabama","code":"AL","county":"Marengo","lat":"32.2516","long":"-87.9494"},
{"zip":"36764","city":"Nanafalia","state":"Alabama","code":"AL","county":"Marengo","lat":"32.2683","long":"-87.7953"},
{"zip":"36782","city":"Sweet Water","state":"Alabama","code":"AL","county":"Marengo","lat":"32.0773","long":"-87.9228"},
{"zip":"36783","city":"Thomaston","state":"Alabama","code":"AL","county":"Marengo","lat":"32.2538","long":"-87.5974"},
{"zip":"35543","city":"Bear Creek","state":"Alabama","code":"AL","county":"Marion","lat":"34.1649","long":"-87.7396"},
{"zip":"35548","city":"Brilliant","state":"Alabama","code":"AL","county":"Marion","lat":"34.0377","long":"-87.7563"},
{"zip":"35563","city":"Guin","state":"Alabama","code":"AL","county":"Marion","lat":"33.9676","long":"-87.9024"},
{"zip":"35564","city":"Hackleburg","state":"Alabama","code":"AL","county":"Marion","lat":"34.2678","long":"-87.8608"},
{"zip":"35570","city":"Hamilton","state":"Alabama","code":"AL","county":"Marion","lat":"34.1534","long":"-88.0085"},
{"zip":"35594","city":"Winfield","state":"Alabama","code":"AL","county":"Marion","lat":"33.9303","long":"-87.7972"},
{"zip":"35016","city":"Arab","state":"Alabama","code":"AL","county":"Marshall","lat":"34.3283","long":"-86.4896"},
{"zip":"35175","city":"Union Grove","state":"Alabama","code":"AL","county":"Marshall","lat":"34.4093","long":"-86.4628"},
{"zip":"35747","city":"Grant","state":"Alabama","code":"AL","county":"Marshall","lat":"34.4959","long":"-86.259"},
{"zip":"35950","city":"Albertville","state":"Alabama","code":"AL","county":"Marshall","lat":"34.2739","long":"-86.2064"},
{"zip":"35951","city":"Albertville","state":"Alabama","code":"AL","county":"Marshall","lat":"34.3223","long":"-86.1935"},
{"zip":"35956","city":"Boaz","state":"Alabama","code":"AL","county":"Marshall","lat":"34.1437","long":"-86.148"},
{"zip":"35957","city":"Boaz","state":"Alabama","code":"AL","county":"Marshall","lat":"34.1921","long":"-86.1941"},
{"zip":"35964","city":"Douglas","state":"Alabama","code":"AL","county":"Marshall","lat":"34.3496","long":"-86.3198"},
{"zip":"35976","city":"Guntersville","state":"Alabama","code":"AL","county":"Marshall","lat":"34.3449","long":"-86.2752"},